"","iata","airport","city","state","country","lat","long"
"1","00M","Thigpen ","Bay Springs","MS","USA",31.95376472,-89.23450472
"2","00R","Livingston Municipal","Livingston","TX","USA",30.68586111,-95.01792778
"3","00V","Meadow Lake","Colorado Springs","CO","USA",38.94574889,-104.5698933
"4","01G","Perry-Warsaw","Perry","NY","USA",42.74134667,-78.05208056
"5","01J","Hilliard Airpark","Hilliard","FL","USA",30.6880125,-81.90594389
"6","01M","Tishomingo County","Belmont","MS","USA",34.49166667,-88.20111111
"7","02A","Gragg-Wade ","Clanton","AL","USA",32.85048667,-86.61145333
"8","02C","Capitol","Brookfield","WI","USA",43.08751,-88.17786917
"9","02G","Columbiana County","East Liverpool","OH","USA",40.67331278,-80.64140639
"10","03D","Memphis Memorial","Memphis","MO","USA",40.44725889,-92.22696056
"11","04M","Calhoun County","Pittsboro","MS","USA",33.93011222,-89.34285194
"12","04Y","Hawley Municipal","Hawley","MN","USA",46.88384889,-96.35089861
"13","05C","Griffith-Merrillville ","Griffith","IN","USA",41.51961917,-87.40109333
"14","05F","Gatesville - City/County","Gatesville","TX","USA",31.42127556,-97.79696778
"15","05U","Eureka","Eureka","NV","USA",39.60416667,-116.0050597
"16","06A","Moton  Municipal","Tuskegee","AL","USA",32.46047167,-85.68003611
"17","06C","Schaumburg","Chicago/Schaumburg","IL","USA",41.98934083,-88.10124278
"18","06D","Rolla Municipal","Rolla","ND","USA",48.88434111,-99.62087694
"19","06M","Eupora Municipal","Eupora","MS","USA",33.53456583,-89.31256917
"20","06N","Randall ","Middletown","NY","USA",41.43156583,-74.39191722
"21","06U","Jackpot/Hayden ","Jackpot","NV","USA",41.97602222,-114.6580911
"22","07C","Dekalb County","Auburn","IN","USA",41.30716667,-85.06433333
"23","07F","Gladewater Municipal","Gladewater","TX","USA",32.52883861,-94.97174556
"24","07G","Fitch H Beach","Charlotte","MI","USA",42.57450861,-84.81143139
"25","07K","Central City Municipal","Central City","NE","USA",41.11668056,-98.05033639
"26","08A","Wetumpka Municipal","Wetumpka","AL","USA",32.52943944,-86.32822139
"27","08D","Stanley Municipal","Stanley","ND","USA",48.30079861,-102.4063514
"28","08K","Harvard State","Harvard","NE","USA",40.65138528,-98.07978667
"29","08M","Carthage-Leake County","Carthage","MS","USA",32.76124611,-89.53007139
"30","09A","Butler-Choctaw County","Butler","AL","USA",32.11931306,-88.1274625
"31","09J","Jekyll Island","Jekyll Island","GA","USA",31.07447222,-81.42777778
"32","09K","Sargent Municipal","Sargent","NE","USA",41.63695083,-99.34038139
"33","09M","Charleston Municipal","Charleston","MS","USA",33.99150222,-90.078145
"34","09W","South Capitol Street","Washington","DC","USA",38.86872333,-77.00747583
"35","0A3","Smithville Municipal","Smithville","TN","USA",35.98531194,-85.80931806
"36","0A8","Bibb County","Centreville","AL","USA",32.93679056,-87.08888306
"37","0A9","Elizabethton Municipal","Elizabethton","TN","USA",36.37094306,-82.17374111
"38","0AK","Pilot Station","Pilot Station","AK","USA",61.93396417,-162.8929358
"39","0B1","Col. Dyke ","Bethel","ME","USA",44.42506444,-70.80784778
"40","0B4","Hartington Municipal","Hartington","NE","USA",42.60355556,-97.25263889
"41","0B5","Turners Falls","Montague","MA","USA",42.59136361,-72.52275472
"42","0B7","Warren-Sugar Bush","Warren","VT","USA",44.11672722,-72.82705806
"43","0B8","Elizabeth ","Fishers Island","NY","USA",41.25130806,-72.03161139
"44","0C0","Dacy","Chicago/Harvard","IL","USA",42.40418556,-88.63343222
"45","0C4","Pender Municipal","Pender","NE","USA",42.11388722,-96.72892556
"46","0D1","South Haven Municipal","South Haven","MI","USA",42.35083333,-86.25613889
"47","0D8","Gettysburg Municipal","Gettysburg","SD","USA",44.98730556,-99.9535
"48","0E0","Moriarty","Moriarty","NM","USA",34.98560639,-106.0094661
"49","0E8","Crownpoint","Crownpoint","NM","USA",35.71765889,-108.2015961
"50","0F2","Bowie Municipal","Bowie","TX","USA",33.60166667,-97.77556
"51","0F4","Loup City Municipal","Loup City","NE","USA",41.29028694,-98.99064278
"52","0F7","Fountainhead Lodge Airpark","Eufaula","OK","USA",35.38898833,-95.60165111
"53","0F8","William R Pogue Municipal","Sand Springs","OK","USA",36.17528,-96.15181028
"54","0F9","Tishomingo Airpark","Tishomingo","OK","USA",34.19592833,-96.67555694
"55","0G0","North Buffalo Suburban","Lockport","NY","USA",43.10318389,-78.70334583
"56","0G3","Tecumseh Municipal","Tecumseh","NE","USA",40.39944417,-96.17139694
"57","0G6","Williams County","Bryan","OH","USA",41.46736111,-84.50655556
"58","0G7","Finger Lakes Regional","Seneca Falls","NY","USA",42.88062278,-76.78162028
"59","0H1","Trego Wakeeney ","Wakeeney","KS","USA",39.0044525,-99.89289917
"60","0I8","Cynthiana-Harrison County","Cynthiana","KY","USA",38.36674167,-84.28410056
"61","0J0","Abbeville Municipal","Abbeville","AL","USA",31.60016778,-85.23882222
"62","0J4","Florala Municipal","Florala","AL","USA",31.04247361,-86.31156111
"63","0J6","Headland Municipal","Headland","AL","USA",31.364895,-85.30965556
"64","0K7","Humboldt Municipal","Humboldt","IA","USA",42.7360825,-94.24524167
"65","0L5","Goldfield","Goldfield","NV","USA",37.71798833,-117.2384119
"66","0L7","Jean","Jean","NV","USA",35.76827222,-115.3296378
"67","0L9","Echo Bay","Overton","NV","USA",36.31108972,-114.4638672
"68","0M0","Dumas Municipal","Dumas","AR","USA",33.8845475,-91.53429111
"69","0M1","Scott ","Parsons","TN","USA",35.63778,-88.127995
"70","0M4","Benton County","Camden","TN","USA",36.01122694,-88.12328833
"71","0M5","Humphreys County","Waverly","TN","USA",36.11659972,-87.73815889
"72","0M6","Panola County","Batesville","MS","USA",34.36677444,-89.90008917
"73","0M8","Byerley","Lake Providence","LA","USA",32.82587917,-91.187665
"74","0O3","Calaveras Co-Maury Rasmussen ","San Andreas","CA","USA",38.14611639,-120.6481733
"75","0O4","Corning Municipal","Corning","CA","USA",39.94376806,-122.1713781
"76","0O5","University","Davis","CA","USA",38.53146222,-121.7864906
"77","0Q5","Shelter Cove","Shelter Cove","CA","USA",40.02764333,-124.0733639
"78","0Q6","Shingletown","Shingletown","CA","USA",40.52210111,-121.8177683
"79","0R0","Columbia-Marion County","Columbia","MS","USA",31.29700806,-89.81282944
"80","0R1","Atmore Municipal","Atmore","AL","USA",31.01621528,-87.44675972
"81","0R3","Abbeville Chris Crusta Memorial","Abbeville","LA","USA",29.97576083,-92.08415167
"82","0R4","Concordia Parish","Vidalia","LA","USA",31.56683278,-91.50011889
"83","0R5","David G Joyce","Winnfield","LA","USA",31.96366222,-92.66026056
"84","0R7","Red River","Coushatta","LA","USA",31.99071694,-93.30739306
"85","0S7","Dorothy Scott","Oroville","WA","USA",48.958965,-119.4119622
"86","0S9","Jefferson County International","Port Townsend","WA","USA",48.04981361,-122.8012792
"87","0V2","Harriet Alexander ","Salida","CO","USA",38.53916389,-106.0458483
"88","0V3","Pioneer Village ","Minden","NE","USA",40.5149125,-98.94565083
"89","0V4","Brookneal/Campbell County","Brookneal","VA","USA",37.14172222,-79.01638889
"90","0V6","Mission Sioux","Mission","SD","USA",43.30694778,-100.6281936
"91","0V7","Kayenta","Kayenta","AZ","USA",36.70972139,-110.2367978
"92","10C","Galt","Chicago/Greenwood/Wonderlake","IL","USA",42.40266472,-88.37588917
"93","10D","Winsted Municipal","Winsted","MN","USA",44.94996278,-94.0669175
"94","10G","Holmes County","Millersburg","OH","USA",40.53716667,-81.95436111
"95","10N","Wallkill","Wallkill","NY","USA",41.62787111,-74.13375583
"96","10U","Owyhee","Owyhee","NV","USA",41.95323306,-116.1876014
"97","11A","Clayton Municipal","Clayton","AL","USA",31.88329917,-85.48491361
"98","11D","Clarion Cty","Clarion","PA","USA",41.22581222,-79.44098972
"99","11IS","Schaumburg Heliport","Chicago/Schaumburg","IL","USA",42.04808278,-88.05257194
"100","11J","Early County","Blakely","GA","USA",31.39698611,-84.89525694
"101","11R","Brenham Municipal","Brenham","TX","USA",30.219,-96.37427778
"102","12C","Rochelle Municipal","Rochelle","IL","USA",41.89300139,-89.07829
"103","12D","Tower Municipal","Tower","MN","USA",47.81833333,-92.29166667
"104","12J","Brewton Municipal","Brewton","AL","USA",31.05126306,-87.06796833
"105","12K","Superior Municipal","Superior","NE","USA",40.04636111,-98.06011111
"106","12Y","Le Sueur Municipal","Le Sueur","MN","USA",44.43746472,-93.91274083
"107","13C","Lakeview","Lakeview","MI","USA",43.45213722,-85.26480333
"108","13K","Eureka Municipal","Eureka","KS","USA",37.8515825,-96.29169806
"109","13N","Trinca","Andover","NJ","USA",40.96676444,-74.78016556
"110","14J","Carl Folsom","Elba","AL","USA",31.40988861,-86.08883583
"111","14M","Hollandale Municipal","Hollandale","MS","USA",33.18262167,-90.83065444
"112","14Y","Todd Field ","Long Prairie","MN","USA",45.89857556,-94.87391
"113","15F","Haskell Municipal","Haskell","TX","USA",33.19155556,-99.71793056
"114","15J","Cook County","Adel","GA","USA",31.13780556,-83.45308333
"115","15M","Luka ","Luka","MS","USA",34.7723125,-88.16587444
"116","15Z","McCarthy 2","McCarthy","AK","USA",61.43706083,-142.9037372
"117","16A","Nunapitchuk","Nunapitchuk","AK","USA",60.90582833,-162.4391158
"118","16G","Seneca County","Tiffin","OH","USA",41.09405556,-83.2125
"119","16J","Dawson Municipal","Dawson","GA","USA",31.74328472,-84.419285
"120","16S","Myrtle Creek Municipal","Myrtle Creek","OR","USA",42.99845056,-123.3095092
"121","17G","Port Bucyrus-Crawford County","Bucyrus","OH","USA",40.78141667,-82.97469444
"122","17J","Donalsonville Municipal","Donalsonville","GA","USA",31.00694444,-84.87761111
"123","17K","Boise City","Boise City","OK","USA",36.77430028,-102.5104364
"124","17M","Magee Municipal","Magee","MS","USA",31.86127139,-89.80285361
"125","17N","Cross Keys","Cross Keys","NJ","USA",39.70547583,-75.03300306
"126","17Z","Manokotak","Manokotak","AK","USA",58.98896583,-159.0499739
"127","18A","Franklin County","Canon","GA","USA",34.34010472,-83.13348333
"128","18I","McCreary County ","Pine Knot","KY","USA",36.69591306,-84.39160389
"129","19A","Jackson County","Jefferson","GA","USA",34.17402472,-83.56066528
"130","19M","C A Moore","Lexington","MS","USA",33.12546111,-90.02555694
"131","19N","Camden","Berlin","NJ","USA",39.77842056,-74.94780389
"132","19P","Port Protection SPB","Port Protection","AK","USA",56.32880417,-133.6100844
"133","1A3","Martin Campbell ","Copperhill","TN","USA",35.01619111,-84.34631083
"134","1A5","Macon County","Franklin","NC","USA",35.222595,-83.41904389
"135","1A6","Middlesboro-Bell County","Middlesboro","KY","USA",36.6106375,-83.73741611
"136","1A7","Jackson County","Gainesboro","TN","USA",36.39728139,-85.64164278
"137","1A9","Autauga County","Prattville","AL","USA",32.438775,-86.51044778
"138","1B0","Dexter Regional","Dexter","ME","USA",45.00839444,-69.23976722
"139","1B1","Columbia Cty","Hudson","NY","USA",42.29130028,-73.71031944
"140","1B3","Fair Haven","Fair Haven","VT","USA",43.61534389,-73.27455556
"141","1B9","Mansfield Municipal","Mansfield","MA","USA",42.00013306,-71.19677139
"142","1C5","Clow","Chicago/Plainfield","IL","USA",41.69597444,-88.12923056
"143","1D1","Milbank Municipal","Milbank","SD","USA",45.23053806,-96.56596556
"144","1D2","Canton -Plymouth -  Mettetal","Plymouth","MI","USA",42.35003667,-83.45826833
"145","1D3","Platte Municipal","Platte","SD","USA",43.40332833,-98.82952972
"146","1D6","Hector Municipal","Hector","MN","USA",44.73107278,-94.71471333
"147","1D7","Webster Municipal","Webster","SD","USA",45.29329111,-97.51369889
"148","1D8","Redfield Municipal","Redfield","SD","USA",44.86247611,-98.52953972
"149","1F0","Downtown Ardmore","Ardmore","OK","USA",34.14698917,-97.12265194
"150","1F1","Lake Murray State Park","Overbrook","OK","USA",34.07509694,-97.10667917
"151","1F4","Madill Municipal","Madill","OK","USA",34.14040194,-96.81203222
"152","1F9","Bridgeport Municipal","Bridgeport","TX","USA",33.17533333,-97.82838889
"153","1G0","Wood County","Bowling Green","OH","USA",41.391,-83.63013889
"154","1G3","Kent State University","Kent","OH","USA",41.15186167,-81.41658306
"155","1G4","Grand Canyon West","Peach Springs","AZ","USA",35.99221,-113.8166164
"156","1G5","Freedom ","Medina","OH","USA",41.13144444,-81.76491667
"157","1G6","Michael ","Cicero","NY","USA",43.18166667,-76.12777778
"158","1H0","Creve Coeur","St Louis","MO","USA",38.72752,-90.50830417
"159","1H2","Effingham County Memorial","Effingham","IL","USA",39.07045083,-88.53351972
"160","1H3","Linn State Tech. College","Linn","MO","USA",38.47149444,-91.81531667
"161","1H8","Casey Municipal","Casey","IL","USA",39.30250917,-88.00406194
"162","1I5","Freehold","Freehold","NY","USA",42.36425,-74.06596806
"163","1I9","Delphi Municipal","Delphi","IN","USA",40.54281417,-86.68167194
"164","1J0","Tri-County","Bonifay","FL","USA",30.84577778,-85.60138889
"165","1K2","Lindsay Municipal","Lindsay","OK","USA",34.85007333,-97.58642028
"166","1K4","David J. Perry","Goldsby","OK","USA",35.1550675,-97.47039389
"167","1K5","Waynoka Municipal","Waynoka","OK","USA",36.56670028,-98.85231333
"168","1K9","Satanta Municipal","Satanta","KS","USA",37.45419111,-100.9921119
"169","1L0","St. John the Baptist Parish","Reserve","LA","USA",30.08720833,-90.58266528
"170","1L1","Lincoln Co","Panaca","NV","USA",37.78746444,-114.4216567
"171","1L7","Escalante Municipal","Escalante","UT","USA",37.74532639,-111.5701653
"172","1L9","Parowan","Parowan","UT","USA",37.85969694,-112.816055
"173","1M1","North Little Rock Municipal","No Lit Rock","AR","USA",34.83398056,-92.25792778
"174","1M2","Belzoni Municipal","Belzoni","MS","USA",33.14518056,-90.51528472
"175","1M4","Posey ","Haleyville","AL","USA",34.28034806,-87.60044139
"176","1M5","Portland Municipal","Portland","TN","USA",36.59287528,-86.47691028
"177","1M7","Fulton","Fulton","KY","USA",36.52589417,-88.91561611
"178","1MO","Mountain Grove Memorial","Mountain Grove","MO","USA",37.12071889,-92.311245
"179","1N2","Spadaro ","East Moriches","NY","USA",40.82787639,-72.74871083
"180","1N4","Woodbine Muni ","Woodbine","NJ","USA",39.21915,-74.794765
"181","1N7","Blairstown","Blairstown","NJ","USA",40.97114556,-74.99747556
"182","1N9","Allentown Queen City Muni","Allentown","PA","USA",40.57027778,-75.48830556
"183","1ND3","Hamry ","Kindred","ND","USA",46.6485775,-97.00564306
"184","1O1","Grandfield Municipal","Grandfield","OK","USA",34.23758944,-98.74200917
"185","1O2","Lampson ","Lakeport","CA","USA",38.99017472,-122.8997175
"186","1O3","Lodi","Lodi","CA","USA",38.20241667,-121.2684167
"187","1O4","Thomas Municipal","Thomas","OK","USA",35.73338222,-98.73063833
"188","1O6","Dunsmuir Municipal-Mott","Dunsmuir","CA","USA",41.26320889,-122.2719528
"189","1R1","Jena","Jena","LA","USA",31.671005,-92.15846722
"190","1R7","Brookhaven-Lincoln County","Brookhaven","MS","USA",31.6058475,-90.40931583
"191","1R8","Bay Minette Municipal","Bay Minette","AL","USA",30.87046278,-87.81738167
"192","1S0","Pierce County ","Puyallup","WA","USA",47.10391667,-122.2871944
"193","1S3","Tillitt ","Forsyth","MT","USA",46.27110639,-106.6239206
"194","1S5","Sunnyside Municipal","Sunnyside","WA","USA",46.32763139,-119.9705964
"195","1S6","Priest River Muni","Priest River","ID","USA",48.19018611,-116.9093644
"196","1U7","Bear Lake County","Paris","ID","USA",42.24714972,-111.33826
"197","1V0","Navajo State Park ","Navajo Dam","NM","USA",36.80833833,-107.6514444
"198","1V2","Grant County ","Hyannis","NE","USA",42.00942944,-101.7693439
"199","1V5","Boulder Muni","Boulder","CO","USA",40.03942972,-105.2258217
"200","1V6","Fremont County","Canon City","CO","USA",38.42838111,-105.1054994
"201","1V9","Blake ","Delta","CO","USA",38.78539722,-108.0636611
"202","20A","Robbins ","Oneonta","AL","USA",33.97231972,-86.37942722
"203","20M","Macon Municipal","Macon","MS","USA",33.13345889,-88.53559806
"204","20N","Kingston-Ulster","Kingston","NY","USA",41.9852525,-73.96409722
"205","20U","Beach","Beach","ND","USA",46.92362444,-103.9785389
"206","20V","McElroy Airfield","Kremmling","CO","USA",40.05367972,-106.3689467
"207","21D","Lake Elmo","St Paul","MN","USA",44.99748861,-92.85568111
"208","21F","Jacksboro Municipal","Jacksboro","TX","USA",33.228725,-98.14671083
"209","22B","Mountain Meadow Airstrip","Burlington","CT","USA",41.77287528,-73.01121667
"210","22I","Vinton County","McArthur","OH","USA",39.328125,-82.44182167
"211","22M","Pontotoc County","Pontotoc","MS","USA",34.27593833,-89.03839694
"212","22N","Carbon Cty-Jake Arner Memorial","Lehighton","PA","USA",40.80950889,-75.76149639
"213","23J","Herlong","Jacksonville","FL","USA",30.27778889,-81.80594722
"214","23M","Clarke County","Quitman","MS","USA",32.08487111,-88.73893389
"215","23N","Bayport Aerodrome","Bayport","NY","USA",40.75843139,-73.05372083
"216","23R","Devine Municipal","Devine","TX","USA",29.1384075,-98.94189028
"217","24A","Jackson County","Sylva","NC","USA",35.3168625,-83.20936806
"218","24J","Suwannee County","Live Oak","FL","USA",30.30105583,-83.02318778
"219","24N","Jicarilla Apache Nation","Dulce","NM","USA",36.828535,-106.8841914
"220","25J","Cuthbert-Randolph","Cuthbert","GA","USA",31.70016583,-84.82492194
"221","25M","Ripley ","Ripley","MS","USA",34.72226778,-89.01504944
"222","25R","International","Edinburg","TX","USA",26.44201083,-98.12945306
"223","26A","Ashland/Lineville","Ashland/Lineville","AL","USA",33.28761417,-85.80412861
"224","26N","Ocean City Muni cipal","Ocean City","NJ","USA",39.26347222,-74.60747222
"225","26R","Jackson County","Edna/Ganado","TX","USA",29.00101,-96.58194667
"226","26U","McDermitt State","McDermitt","OR","USA",42.00211083,-117.7231972
"227","27A","Elbert County-Patz ","Elberton","GA","USA",34.09519722,-82.81586417
"228","27D","Myers ","Canby","MN","USA",44.72801889,-96.26309972
"229","27J","Newberry Municipal","Newberry","SC","USA",34.30927778,-81.63972222
"230","27K","Georgetown-Scott County","Georgetown","KY","USA",38.23442528,-84.43468667
"231","28J","Kay Larkin","Palatka","FL","USA",29.65863889,-81.68855556
"232","29D","Grove City","Grove City","PA","USA",41.14597611,-80.16592194
"233","29G","Portage County","Ravenna","OH","USA",41.210195,-81.25163083
"234","29S","Gardiner","Gardiner","MT","USA",45.04993556,-110.7466008
"235","2A0","Mark Anton","Dayton","TN","USA",35.48624611,-84.93109722
"236","2A1","Jamestown Municipal","Jamestown","TN","USA",36.34970833,-84.94664472
"237","2A3","Larsen Bay","Larsen Bay","AK","USA",57.53510667,-153.9784169
"238","2A9","Kotlik","Kotlik","AK","USA",63.03116111,-163.5299278
"239","2AK","Lime Village","Lime Village","AK","USA",61.35848528,-155.4403508
"240","2B3","Parlin ","Newport","NH","USA",43.38812944,-72.18925417
"241","2B7","Pittsfield Municipal","Pittsfield","ME","USA",44.76852778,-69.37441667
"242","2B9","Post Mills","Post Mills","VT","USA",43.884235,-72.25370333
"243","2D1","Barber","Alliance","OH","USA",40.97089139,-81.09981889
"244","2D5","Oakes Municipal","Oakes","ND","USA",46.17301972,-98.07987556
"245","2F5","Lamesa Municipal","Lamesa","TX","USA",32.75627778,-101.9194722
"246","2F6","Skiatook Municipal","Skiatook","OK","USA",36.357035,-96.01138556
"247","2F7","Commerce Municipal","Commerce","TX","USA",33.29288889,-95.89641806
"248","2F8","Morehouse Memorial","Bastrop","LA","USA",32.75607944,-91.88057194
"249","2G2","Jefferson County Airpark","Steubenville","OH","USA",40.35944306,-80.70007806
"250","2G3","Connellsville","Connellsville","PA","USA",39.95893667,-79.65713306
"251","2G4","Garrett County","Oakland","MD","USA",39.58027778,-79.33941667
"252","2G9","Somerset County","Somerset","PA","USA",40.03911111,-79.01455556
"253","2H0","Shelby County","Shelbyville","IL","USA",39.41042861,-88.8454325
"254","2H2","Aurora Memorial Municipal","Aurora","MO","USA",36.96230778,-93.69531111
"255","2I0","Madisonville Municipal","Madisonville","KY","USA",37.35502778,-87.39963889
"256","2I5","Chanute","Rantoul","IL","USA",40.29355556,-88.14236111
"257","2IS","Airglades","Clewiston","FL","USA",26.74200972,-81.04978917
"258","2J2","Liberty County","Hinesville","GA","USA",31.78461111,-81.64116667
"259","2J3","Louisville Municipal","Louisville","GA","USA",32.98654083,-82.38568139
"260","2J5","Millen","Millen","GA","USA",32.89376972,-81.96511583
"261","2J9","Quincy Municipal","Quincy","FL","USA",30.59786111,-84.55741667
"262","2K3","Stanton County Municipal","Johnson","KS","USA",37.58271111,-101.73281
"263","2K4","Scott ","Mangum","OK","USA",34.89172583,-99.52675667
"264","2K5","Telida","Telida","AK","USA",63.39387278,-153.2689733
"265","2M0","Princeton-Caldwell County","Princeton","KY","USA",37.11560444,-87.85556944
"266","2M2","Lawrenceburg Municipal","Lawrenceburg","TN","USA",35.2343025,-87.25793222
"267","2M3","Sallisaw Municipal","Sallisaw","OK","USA",35.43816667,-94.80277778
"268","2M4","G. V. Montgomery","Forest","MS","USA",32.35347778,-89.48867944
"269","2M8","Charles W. Baker","Millington","TN","USA",35.27897583,-89.93147611
"270","2O1","Gansner ","Quincy","CA","USA",39.94378056,-120.9468983
"271","2O3","Angwin-Parrett ","Angwin","CA","USA",38.57851778,-122.4352572
"272","2O6","Chowchilla","Chowchilla","CA","USA",37.11244417,-120.2468406
"273","2O7","Independence","Independence","CA","USA",36.81382111,-118.2050956
"274","2O8","Hinton Municipal","Hinton","OK","USA",35.50592472,-98.34236111
"275","2P2","Washington Island","Washington Island","WI","USA",45.38620833,-86.92448056
"276","2Q3","Yolo Co-Davis/Woodland/Winters","Davis/Woodland/Winters","CA","USA",38.5790725,-121.8566322
"277","2R0","Waynesboro Municipal","Waynesboro","MS","USA",31.64599472,-88.63475667
"278","2R4","Peter Prince ","Milton","FL","USA",30.63762083,-86.99365278
"279","2R5","St Elmo","St Elmo","AL","USA",30.50190833,-88.27511667
"280","2R9","Karnes County","Kenedy","TX","USA",28.8250075,-97.86558333
"281","2S1","Vashon Municipal","Vashon","WA","USA",47.45815333,-122.4773506
"282","2S6","Sportsman Airpark","Newberg","OR","USA",45.29567333,-122.9553783
"283","2S7","Chiloquin State","Chiloquin","OR","USA",42.58319167,-121.8761261
"284","2S8","Wilbur","Wilbur","WA","USA",47.75320639,-118.7438936
"285","2T1","Muleshoe Municipal","Muleshoe","TX","USA",34.18513639,-102.6410981
"286","2V1","Stevens ","Pagosa Springs","CO","USA",37.277505,-107.0558742
"287","2V2","Vance Brand","Longmont","CO","USA",40.16367139,-105.1630369
"288","2V5","Wray Municipal","Wray","CO","USA",40.10032333,-102.24096
"289","2V6","Yuma Municipal","Yuma","CO","USA",40.10415306,-102.7129869
"290","2W5","Maryland","Indian Head","MD","USA",38.60053667,-77.07296917
"291","2W6","Captain Walter Francis Duke Regional ","Leonardtown","MD","USA",38.31536111,-76.55011111
"292","2Y3","Yakutat SPB","Yakutat","AK","USA",59.5624775,-139.7410994
"293","2Y4","Rockwell City Municipal","Rockwell City","IA","USA",42.38748056,-94.61803333
"294","31F","Gaines County","Seminole","TX","USA",32.67535389,-102.652685
"295","32M","Norfolk","Norfolk","MA","USA",42.12787528,-71.37033556
"296","32S","Stevensville","Stevensville","MT","USA",46.52511111,-114.0528056
"297","33J","Geneva Municipal","Geneva","AL","USA",31.05527778,-85.88033333
"298","33M","Water Valley ","Water Valley","MS","USA",34.16677639,-89.68619722
"299","33N","Delaware Airpark","Dover","DE","USA",39.21837556,-75.59642667
"300","33S","Pru ","Ritzville","WA","USA",47.12487194,-118.3927539
"301","34A","Laurens County","Laurens","SC","USA",34.50705556,-81.94719444
"302","35A","Union County, Troy Shelton ","Union","SC","USA",34.68680111,-81.64121167
"303","35D","Padgham ","Allegan","MI","USA",42.53098278,-85.82513556
"304","35S","Wasco State","Wasco","OR","USA",45.58944444,-120.6741667
"305","36K","Lakin","Lakin","KS","USA",37.96946389,-101.2554472
"306","36S","Happy Camp","Happy Camp","CA","USA",41.79067944,-123.3889444
"307","36U","Heber City Municipal/Russ McDonald ","Heber","UT","USA",40.48180556,-111.4288056
"308","37T","Calico Rock-Izard County","Calico Rock","AR","USA",36.16565278,-92.14523611
"309","37W","Harnett County","Erwin","NC","USA",35.37880028,-78.73362917
"310","38A","Shaktoolik","Shaktoolik","AK","USA",64.36263194,-161.2025369
"311","38S","Deer Lodge-City-County","Deer Lodge","MT","USA",46.38881583,-112.7669842
"312","38U","Wayne Wonderland","Loa","UT","USA",38.36247972,-111.5960164
"313","39N","Princeton","Princeton","NJ","USA",40.39834833,-74.65760361
"314","3A0","Grove Hill Municipal","Grove Hill","AL","USA",31.68932389,-87.7613875
"315","3A1","Folsom ","Cullman","AL","USA",34.26870833,-86.85833611
"316","3A2","New Tazewell Municipal","Tazewell","TN","USA",36.41008417,-83.55546167
"317","3A3","Anson County","Wadesboro","NC","USA",35.02397611,-80.08127333
"318","3AU","Augusta Municipal","Augusta","KS","USA",37.67162778,-97.07787222
"319","3B0","Southbridge Municipal","Southbridge","MA","USA",42.10092806,-72.03840833
"320","3B1","Greenville Municipal","Greenville","ME","USA",45.46302778,-69.55161111
"321","3B2","Marshfield","Marshfield","MA","USA",42.09824111,-70.67212083
"322","3B9","Chester","Chester","CT","USA",41.38390472,-72.50589444
"323","3BS","Jack Barstow","Midland","MI","USA",43.66291528,-84.261325
"324","3CK","Lake In The Hills","Lake In The Hills","IL","USA",42.20680306,-88.32304028
"325","3CM","James Clements Municipal","Bay City","MI","USA",43.54691667,-83.89550222
"326","3CU","Cable Union","Cable","WI","USA",46.19424889,-91.24640972
"327","3D2","Ephraim/Gibraltar","Ephraim","WI","USA",45.13535778,-87.18586556
"328","3D4","Frankfort Dow Memorial","Frankfort","MI","USA",44.62506389,-86.20061944
"329","3F3","De Soto Parish","Mansfield","LA","USA",32.07345972,-93.76551889
"330","3F4","Vivian","Vivian","LA","USA",32.86133333,-94.01015361
"331","3F7","Jones Memorial","Bristow","OK","USA",35.80685278,-96.42185556
"332","3FM","Fremont Municipal","Fremont","MI","USA",43.43890528,-85.99478
"333","3FU","Faulkton Municipal","Faulkton","SD","USA",45.03191861,-99.11566417
"334","3G3","Wadsworth Municipal","Wadsworth","OH","USA",41.00158222,-81.75513111
"335","3G4","Ashland County","Ashland","OH","USA",40.90297222,-82.25563889
"336","3G7","Williamson/Sodus","Williamson","NY","USA",43.23472222,-77.12097222
"337","3GM","Grand Haven Memorial Airpark","Grand Haven","MI","USA",43.03404639,-86.1981625
"338","3I2","Mason County","Point Pleasant","WV","USA",38.91463889,-82.09858333
"339","3I7","Phillipsburg","Phillipsburg","OH","USA",39.91344194,-84.40030889
"340","3J1","Ridgeland","Ridgeland","SC","USA",32.49268694,-80.99233028
"341","3J7","Greene County Airpark","Greensboro","GA","USA",33.59766667,-83.139
"342","3JC","Freeman ","Junction City","KS","USA",39.04327556,-96.84328694
"343","3K3","Syracuse-Hamilton County Municipal","Syracuse","KS","USA",37.99167972,-101.7462822
"344","3K6","St Louis-Metro East","Troy/Marine/St. Louis","IL","USA",38.73290861,-89.80656722
"345","3K7","Mark Hoard Memorial","Leoti","KS","USA",38.45696333,-101.3532161
"346","3LC","Logan County","Lincoln","IL","USA",40.15847222,-89.33497222
"347","3LF","Litchfield Municipal","Litchfield","IL","USA",39.16635306,-89.67489694
"348","3M7","Lafayette Municipal","Lafayette","TN","USA",36.518375,-86.05828083
"349","3M8","North Pickens ","Reform","AL","USA",33.38900611,-88.00557806
"350","3M9","Warren Municipal","Warren","AR","USA",33.56044333,-92.08538861
"351","3MY","Mt. Hawley Auxiliary","Peoria","IL","USA",40.79525917,-89.6134025
"352","3N6","Old Bridge","Old Bridge","NJ","USA",40.32988667,-74.34678694
"353","3N8","Mahnomen County ","Mahnomen","MN","USA",47.25996056,-95.92809778
"354","3ND0","Northwood Municipal","Northwood","ND","USA",47.72423333,-97.59042222
"355","3O1","Gustine","Gustine","CA","USA",37.26271722,-120.9632586
"356","3O3","Municipal","Purcell","OK","USA",34.97979444,-97.38586167
"357","3O4","Sayre Municipal","Sayre","OK","USA",35.16755222,-99.65787361
"358","3O5","Walters Municipal","Walters","OK","USA",34.37258444,-98.40588583
"359","3O7","Hollister Municipal","Hollister","CA","USA",36.89334528,-121.4102706
"360","3O9","Grand Lake Regional","Afton","OK","USA",36.5775775,-94.86190028
"361","3R0","Beeville Municipal","Beeville","TX","USA",28.36455528,-97.79208194
"362","3R1","Bay City Municipal","Bay City","TX","USA",28.973255,-95.86345528
"363","3R2","Le Gros Memorial","Crowley","LA","USA",30.16173611,-92.48396111
"364","3R4","Hart","Many","LA","USA",31.54489667,-93.48645306
"365","3R7","Jennings","Jennings","LA","USA",30.24269333,-92.67344778
"366","3S4","Illinois Valley","Illinois Valley (Cave Junction)","OR","USA",42.10372417,-123.6822911
"367","3S8","Grants Pass","Grants Pass","OR","USA",42.51011722,-123.3879894
"368","3S9","Condon State-Pauling ","Condon","OR","USA",45.24651889,-120.1664233
"369","3SG","Harry W Browne","Saginaw - H.Browne","MI","USA",43.43341028,-83.86245833
"370","3SQ","St Charles","St Charles","MO","USA",38.84866139,-90.50011833
"371","3T3","Boyceville Municipal ","Boyceville","WI","USA",45.042185,-92.0293475
"372","3T5","Fayette Regional Air Center","La Grange","TX","USA",29.90930556,-96.9505
"373","3TR","Jerry Tyler Memorial","Niles","MI","USA",41.83590806,-86.22517611
"374","3U3","Bowman ","Anaconda","MT","USA",46.15313278,-112.86784
"375","3U7","Benchmark","Benchmark","MT","USA",47.48133194,-112.8697678
"376","3U8","Big Sandy","Big Sandy","MT","USA",48.16247972,-110.1132631
"377","3V4","Fort Morgan Municipal","Fort Morgan","CO","USA",40.33423194,-103.8039508
"378","3WO","Shawano Municipal","Shawano","WI","USA",44.78777778,-88.56152444
"379","3Y2","George L Scott Municipal","West Union","IA","USA",42.98508917,-91.79060417
"380","3Y3","Winterset Madison County","Winterset","IA","USA",41.36276778,-94.02106194
"381","3Z9","Haines SPB","Haines","AK","USA",59.23495111,-135.4407181
"382","40J","Perry-Foley","Perry","FL","USA",30.06927778,-83.58058333
"383","40N","Chester Cty-G O Carlson","Coatesville","PA","USA",39.97897222,-75.86547222
"384","40U","Manila","Manila","UT","USA",40.98607,-109.6784811
"385","41U","Manti-Ephraim","Manti","UT","USA",39.32912833,-111.6146397
"386","42A","Melbourne Municipal","Melbourne","AR","USA",36.07079222,-91.82914667
"387","42C","White Cloud","White Cloud","MI","USA",43.55974139,-85.77421944
"388","42J","Keystone Airpark","Keystone Heights","FL","USA",29.84475,-82.04752778
"389","42S","Poplar","Poplar","MT","USA",48.11595861,-105.1821928
"390","43A","Montgomery County","Star","NC","USA",35.38819528,-79.79281667
"391","44B","Dover/Foxcroft","Dover-Foxcroft","ME","USA",45.18338806,-69.2328225
"392","44N","Sky Acres","Millbrook","NY","USA",41.70742861,-73.73802889
"393","45J","Rockingham-Hamlet","Rockingham","NC","USA",34.89107083,-79.75905806
"394","45OH","North Bass Island","North Bass Island","OH","USA",41.71932528,-82.82196917
"395","45R","Kountz - Hawthorne ","Kountze/Silsbee","TX","USA",30.33633806,-94.25754361
"396","46A","Blairsville","Blairsville","GA","USA",34.85508722,-83.996855
"397","46D","Carrington Municipal","Carrington","ND","USA",47.45111111,-99.15111111
"398","46N","Sky Park","Red Hook","NY","USA",41.98458333,-73.83596556
"399","47A","Cherokee County","Canton","GA","USA",34.31058333,-84.42391667
"400","47J","Cheraw Municipal","Cheraw","SC","USA",34.71258333,-79.95794444
"401","47N","Central Jersey Regional","Manville","NJ","USA",40.52438417,-74.59839194
"402","47V","Curtis Municipal","Curtis","NE","USA",40.63750778,-100.4712539
"403","48A","Cochran","Cochran","GA","USA",32.39936111,-83.27591667
"404","48D","Clare Municipal","Clare","MI","USA",43.83111111,-84.74133333
"405","48I","Braxton County","Sutton","WV","USA",38.68704444,-80.65176083
"406","48K","Ness City Municipal","Ness City","KS","USA",38.47110278,-99.90806667
"407","48S","Harlem","Harlem","MT","USA",48.56666472,-108.7729339
"408","48V","Tri-County","Erie","CO","USA",40.010225,-105.047975
"409","49A","Gilmer County","Ellijay","GA","USA",34.62786417,-84.52492889
"410","49T","Downtown Heliport","Dallas","TX","USA",32.77333333,-96.80027778
"411","49X","Chemehuevi Valley","Chemehuevi Valley","CA","USA",34.52751083,-114.4310697
"412","49Y","Fillmore County","Preston","MN","USA",43.67676,-92.17973444
"413","4A2","Atmautluak","Atmautluak","AK","USA",60.86674556,-162.2731389
"414","4A4","Cornelius-Moore ","Cedartown","GA","USA",34.01869444,-85.14647222
"415","4A5","Marshall-Searcy County","Marshall","AR","USA",35.89893667,-92.65588611
"416","4A6","Scottsboro Municipal","Scottsboro","AL","USA",34.68897278,-86.0058125
"417","4A7","Clayton County","Hampton","GA","USA",33.38911111,-84.33236111
"418","4A9","Isbell ","Fort Payne","AL","USA",34.4728925,-85.72221722
"419","4B0","South Albany","South Bethlehem","NY","USA",42.56072611,-73.83395639
"420","4B1","Duanesburg","Duanesburg","NY","USA",42.75840889,-74.13290472
"421","4B6","Ticonderoga Muni","Ticonderoga","NY","USA",43.87700278,-73.41317639
"422","4B7","Schroon Lake","Schroon Lake","NY","USA",43.86256083,-73.74262972
"423","4B8","Robertson ","Plainville","CT","USA",41.69037667,-72.8648225
"424","4B9","Simsbury Tri-Town","Simsbury","CT","USA",41.91676389,-72.77731778
"425","4C8","Albia Municipal","Albia","IA","USA",40.99445361,-92.76297194
"426","4D0","Abrams Municipal","Grandledge","MI","USA",42.77420167,-84.73309806
"427","4D9","Alma Municipal","Alma","NE","USA",40.11389972,-99.34565306
"428","4F2","Panola County-Sharpe ","Carthage","TX","USA",32.17608333,-94.29880556
"429","4F4","Gilmer-Upshur County","Gilmer","TX","USA",32.699,-94.94886111
"430","4G1","Greenville Muni","Greenville","PA","USA",41.44683167,-80.39126167
"431","4G2","Hamburg Inc.","Hamburg","NY","USA",42.7008925,-78.91475694
"432","4G5","Monroe County","Woodsfield","OH","USA",39.77904472,-81.10277222
"433","4G6","Hornell Muni","Hornell","NY","USA",42.38214444,-77.6821125
"434","4G7","Fairmont Muni","Fairmont","WV","USA",39.44816667,-80.16702778
"435","4I0","Mingo County","Williamson","WV","USA",37.68760139,-82.26097306
"436","4I3","Knox County","Mount Vernon","OH","USA",40.32872222,-82.52377778
"437","4I7","Putnam County","Greencastle","IN","USA",39.63359556,-86.8138325
"438","4I9","Morrow County","Mt. Gilead","OH","USA",40.52452778,-82.85005556
"439","4J1","Brantley County","Nahunta","GA","USA",31.21272417,-81.90539083
"440","4J2","Berrien County","Nashville","GA","USA",31.21255556,-83.22627778
"441","4J5","Quitman-Brooks County","Quitman","GA","USA",30.80575139,-83.58654889
"442","4J6","St Marys","St Marys","GA","USA",30.75468028,-81.55731917
"443","4K0","Pedro Bay","Pedro Bay","AK","USA",59.78960972,-154.1238331
"444","4K5","Ouzinkie","Ouzinkie","AK","USA",57.92287611,-152.5005111
"445","4K6","Bloomfield Municipal","Bloomfield","IA","USA",40.73210556,-92.42826889
"446","4KA","Tununak","Tununak","AK","USA",60.57559667,-165.2731272
"447","4M1","Carroll County","Berryville","AR","USA",36.38340333,-93.61685667
"448","4M3","Carlisle Municipal","Carlisle","AR","USA",34.80823,-91.71205083
"449","4M4","Clinton Municipal","Clinton","AR","USA",35.59785528,-92.45182472
"450","4M7","Russellville-Logan County","Russellville","KY","USA",36.79991667,-86.81016667
"451","4M8","Clarendon Municipal","Clarendon","AR","USA",34.64870694,-91.39457111
"452","4M9","Corning Municipal","Corning","AR","USA",36.40423139,-90.64792639
"453","4N1","Greenwood Lake","West Milford","NJ","USA",41.12854806,-74.34584611
"454","4O3","Blackwell-Tonkawa Municipal","Blackwell-Tonkawa","OK","USA",36.74511583,-97.34959972
"455","4O4","McCurtain County Regional","Idabel","OK","USA",33.909325,-94.85835278
"456","4O5","Cherokee Municipal","Cherokee","OK","USA",36.78336306,-98.35035083
"457","4PH","Polacca","Polacca","AZ","USA",35.79167222,-110.4234653
"458","4R1","I H Bass Jr Memorial","Lumberton","MS","USA",31.01546028,-89.48256556
"459","4R3","Jackson Municipal","Jackson","AL","USA",31.47210861,-87.89472083
"460","4R4","Fairhope Municipal","Fairhope","AL","USA",30.4621125,-87.87801972
"461","4R5","Madeline Island","La Pointe","WI","USA",46.78865556,-90.75866944
"462","4R7","Eunice","Eunice","LA","USA",30.46628389,-92.42379917
"463","4R9","Dauphin Island","Dauphin Island","AL","USA",30.26048083,-88.12749972
"464","4S1","Gold Beach Muni","Gold Beach","OR","USA",42.41344444,-124.4242742
"465","4S2","Hood River","Hood River","OR","USA",45.67261833,-121.5364625
"466","4S3","Joseph State","Joseph","OR","USA",45.35709583,-117.2532244
"467","4S9","Portland-Mulino","Mulino (Portland)","OR","USA",45.21632417,-122.5900839
"468","4SD","Reno/Stead","Reno","NV","USA",39.66738111,-119.8754169
"469","4T6","Mid-Way","Midlothian-Waxahachie","TX","USA",32.45609722,-96.91240972
"470","4U3","Liberty County","Chester","MT","USA",48.51072222,-110.9908639
"471","4U6","Circle Town County","Circle","MT","USA",47.41861972,-105.5619431
"472","4V0","Rangely","Rangely","CO","USA",40.09469917,-108.7612172
"473","4V1","Johnson ","Walsenburg","CO","USA",37.69640056,-104.7838747
"474","4V9","Antelope County","Neligh","NE","USA",42.11222889,-98.0386775
"475","4W1","Elizabethtown Municipal","Elizabethtown","NC","USA",34.60183722,-78.57973306
"476","4Z4","Holy Cross","Holy Cross","AK","USA",62.18829583,-159.7749503
"477","4Z7","Hyder SPB","Hyder","AK","USA",55.90331972,-130.0067031
"478","50I","Kentland Municipal","Kentland","IN","USA",40.75873222,-87.42821917
"479","50J","Berkeley County","Moncks Corner","SC","USA",33.18605556,-80.03563889
"480","50K","Pawnee City Municipal","Pawnee City","NE","USA",40.11611111,-96.19445278
"481","50R","Lockhart Municipal","Lockhart","TX","USA",29.85033333,-97.67241667
"482","51D","Edgeley Municipal ","Edgeley","ND","USA",46.34858333,-98.73555556
"483","51Z","Minto (New)","Minto","AK","USA",65.14370889,-149.3699647
"484","52A","Madison Municipal","Madison","GA","USA",33.61212528,-83.46044333
"485","52E","Timberon ","Timberon","NM","USA",32.63388889,-105.6863889
"486","52J","Lee County","Bishopville","SC","USA",34.24459889,-80.23729333
"487","53A","Dr. C.P. Savage, Sr.","Montezuma","GA","USA",32.302,-84.00747222
"488","53K","Osage City Municipal","Osage City","KS","USA",38.63334222,-95.80859806
"489","54J","Defuniak Springs","Defuniak Springs","FL","USA",30.7313,-86.15160833
"490","55D","Grayling Army Airfield","Grayling","MI","USA",44.68032028,-84.72886278
"491","55J","Fernandina Beach Municipal","Fernandina Beach","FL","USA",30.61170083,-81.462345
"492","55S","Packwood","Packwood","WA","USA",46.60400083,-121.6778664
"493","56D","Wyandot County","Upper Sandusky","OH","USA",40.88336139,-83.3145325
"494","56M","Warsaw Municipal","Warsaw","MO","USA",38.34688889,-93.345425
"495","56S","Seaside Municipal","Seaside","OR","USA",46.01649694,-123.9054167
"496","57B","Islesboro","Islesboro","ME","USA",44.30285556,-68.91058722
"497","57C","East Troy Municipal","East Troy","WI","USA",42.79711111,-88.3725
"498","59B","Newton ","Jackman","ME","USA",45.63199111,-70.24728944
"499","5A4","Okolona Mun.-Richard M. Stovall ","Okolona","MS","USA",34.01580528,-88.72618944
"500","5A6","Winona-Montgomery County","Winona","MS","USA",33.46540139,-89.72924806
"501","5A8","Aleknagik","Aleknagik","AK","USA",59.28256167,-158.6176725
"502","5A9","Roosevelt Memorial","Warm Springs","GA","USA",32.93346222,-84.68881639
"503","5B2","Saratoga Cty","Saratoga Springs","NY","USA",43.05126111,-73.86119444
"504","5B3","Danielson","Danielson","CT","USA",41.81974056,-71.90096306
"505","5B7","Rensselaer Air Park","Troy","NY","USA",42.69091194,-73.57956
"506","5CD","Chandalar Shelf","Chandalar Camp","AK","USA",68.06543944,-149.5797392
"507","5D3","Owosso Community","Owosso","MI","USA",42.99297222,-84.1389125
"508","5F1","Post-Garza County Municipal","Post","TX","USA",33.20370556,-101.340415
"509","5F4","Homer Municipal","Homer","LA","USA",32.78850806,-93.00366083
"510","5G0","Leroy ","Le Roy","NY","USA",42.98136667,-77.93751389
"511","5G7","Bluffton","Bluffton","OH","USA",40.88544444,-83.86863889
"512","5G8","Pittsburgh Boquet Airpark","Jeanette","PA","USA",40.37645722,-79.60837583
"513","5G9","Toledo Suburban","Lambertville","MI","USA",41.7358775,-83.65541056
"514","5HO","Hope","Hope","AK","USA",60.90415028,-149.6238389
"515","5I4","Sheridan","Sheridan","IN","USA",40.17792583,-86.21729889
"516","5J0","John Day State","John Day","OR","USA",44.40416667,-118.9625
"517","5J9","Twin City","Loris","SC","USA",34.08848361,-78.86462028
"518","5K2","Tribune Municipal","Tribune","KS","USA",38.45418222,-101.7462828
"519","5M0","Rountree ","Hartselle","AL","USA",34.40823444,-86.93295056
"520","5M1","De Witt Municipal","De Witt","AR","USA",34.2626,-91.30984194
"521","5M4","Fordyce Municipal","Fordyce","AR","USA",33.84593722,-92.36542861
"522","5M9","Marion-Crittenden County","Marion","KY","USA",37.33616222,-88.11113611
"523","5N8","Casselton Regional","Casselton","ND","USA",46.85469528,-97.20870028
"524","5ND6","Hillsboro Municipal","Hillsboro","ND","USA",47.35940778,-97.06041639
"525","5NI","Nikolai","Nikolai","AK","USA",63.0174475,-154.3639608
"526","5NK","Naknek","Naknek","AK","USA",58.73288056,-157.0199197
"527","5NN","Nondalton","Nondalton","AK","USA",59.97904306,-154.8396944
"528","5R3","Rusty Allen ","Lago Vista","TX","USA",30.498585,-97.96947222
"529","5R4","Foley Municipal","Foley","AL","USA",30.42769722,-87.70082
"530","5R5","Wharton Municipal","Wharton","TX","USA",29.25427778,-96.15438889
"531","5R8","De Quincy Industrial Airpark","De Quincy","LA","USA",30.44117222,-93.47349722
"532","5S8","St. Michael","St. Michael","AK","USA",63.49005056,-162.1103692
"533","5T5","Hillsboro Municipal","Hillsboro","TX","USA",32.08348611,-97.09722722
"534","5T6","Dona Ana County  At Santa Teresa","Santa Teresa","NM","USA",31.88098556,-106.7048131
"535","5T9","Maverick County Meml Intl","Eagle Pass","TX","USA",28.85719361,-100.5122997
"536","5TE","Tetlin","Tetlin","AK","USA",63.13382361,-142.5219339
"537","5U3","Ennis - Big Sky","Ennis","MT","USA",45.27175833,-111.6486389
"538","5U8","Geraldine","Geraldine","MT","USA",47.59664,-110.2660367
"539","5V5","Shiprock Airstrip","Shiprock","NM","USA",36.6977775,-108.7011986
"540","5V8","Kadoka Municipal","Kadoka","SD","USA",43.83332611,-101.4970881
"541","5W8","Siler City Municipal","Siler City","NC","USA",35.7029175,-79.50529972
"542","5Z1","Juneau Harbor","Juneau","AK","USA",58.29888889,-134.4077778
"543","5Z5","Kantishna","Kantishna","AK","USA",63.54171472,-150.9939547
"544","60F","Seymour Municipal","Seymour","TX","USA",33.64870417,-99.26063056
"545","60J","Ocean Isle","Ocean Isle Beach","NC","USA",33.90850556,-78.43667222
"546","61A","Camden Municipal","Camden","AL","USA",31.97987056,-87.33888056
"547","61B","Boulder City Municipal","Boulder City","NV","USA",35.94748028,-114.8610967
"548","61C","Fort Atkinson Municipal","Fort Atkinson","WI","USA",42.96320278,-88.81762806
"549","61J","Portland Downtown Heliport","Portland","OR","USA",45.52527778,-122.6709289
"550","61S","Cottage Grove State","Cottage Grove","OR","USA",43.79984528,-123.0289678
"551","62D","Warren","Warren","OH","USA",41.26672278,-80.92897778
"552","62H","Giddings-Lee County","Giddings","TX","USA",30.16927167,-96.98001083
"553","62S","Christmas Valley","Christmas Valley","OR","USA",43.23653139,-120.6660967
"554","63A","Lloyd R. Roundtree Seaplane Facility","Petersburg","AK","USA",56.81131972,-132.9600567
"555","63C","Adams County Legion ","Adams/Friendship","WI","USA",43.96117222,-89.78804889
"556","63S","Colville Municipal","Colville","WA","USA",48.54156944,-117.8844247
"557","65J","Wrens Memorial","Wrens","GA","USA",33.222645,-82.38373611
"558","65S","Boundary County","Bonners Ferry","ID","USA",48.72632639,-116.2954761
"559","66D","Sturgis Municipal","Sturgis","SD","USA",44.41761111,-103.3747778
"560","67L","Mesquite","Mesquite","NV","USA",36.83497556,-114.0552453
"561","68A","Wrangell SPB","Wrangell","AK","USA",56.466325,-132.3800181
"562","68S","Davenport","Davenport","WA","USA",47.65404528,-118.1677519
"563","6A1","Butler Municipal","Butler","GA","USA",32.56736694,-84.25074833
"564","6A2","Griffin-Spaulding County ","Griffin","GA","USA",33.22697222,-84.27494444
"565","6A3","Andrews-Murphy","Andrews","NC","USA",35.19453167,-83.86490194
"566","6A4","Johnson County","Mountain City","TN","USA",36.41789833,-81.82511528
"567","6A8","Allakaket","Allakaket","AK","USA",66.55194444,-152.6222222
"568","6B0","Middlebury State","Middlebury","VT","USA",43.98478278,-73.09594889
"569","6B4","Frankfort-Highland","Utica/Frankfort","NY","USA",43.02090306,-75.17043861
"570","6B6","Minute Man Airfield","Stow","MA","USA",42.46045361,-71.51791444
"571","6B8","Caledonia County State","Lyndonville","VT","USA",44.56911417,-72.01797889
"572","6B9","Skaneateles Aero Drome","Skaneateles","NY","USA",42.91395583,-76.44076889
"573","6D6","Greenville Municipal","Greenville","MI","USA",43.14228139,-85.25380722
"574","6D8","Barnes County Municipal","Valley City","ND","USA",46.94100778,-98.01762611
"575","6F1","Talihina Municipal","Talihina","OK","USA",34.70777139,-95.07378583
"576","6G1","Titusville","Titusville","PA","USA",41.60880861,-79.74133111
"577","6G5","Barnesville - Bradfield","Barnesville","OH","USA",40.00243139,-81.19183
"578","6I2","Lebanon-Springfield","Springfield","KY","USA",37.63355556,-85.24216667
"579","6J0","Corporate","Pelion","SC","USA",33.79463889,-81.24586111
"580","6J2","St George","St George","SC","USA",33.1955,-80.50847222
"581","6J4","Saluda County","Saluda","SC","USA",33.92680111,-81.79455306
"582","6K3","Creighton Municipal","Creighton","NE","USA",42.47083694,-97.88367778
"583","6K4","Fairview Municipal","Fairview","OK","USA",36.29014667,-98.47582833
"584","6K8","Tok Junction","Tok","AK","USA",63.32881806,-142.9536194
"585","6L4","Logan County","Logan","WV","USA",37.85567778,-81.91589722
"586","6M2","Horseshoe Bend","Horseshoe Bend","AR","USA",36.21673389,-91.75014556
"587","6M6","Lewis County Regional","Monticello","MO","USA",40.12916667,-91.67833333
"588","6M7","Lee County-Marianna","Marianna","AR","USA",34.78027778,-90.81055556
"589","6M8","Marked Tree Municipal","Marked Tree","AR","USA",35.53341472,-90.40149028
"590","6N5","E 34th St Heliport","New York","NY","USA",40.74260167,-73.97208306
"591","6N7","New York Skyports Inc. SPB","New York","NY","USA",40.73399083,-73.97291639
"592","6N8","Thomas County ","Thedford","NE","USA",41.96217028,-100.5690139
"593","6R3","Cleveland Municipal","Cleveland","TX","USA",30.35643,-95.00801472
"594","6R7","Old Harbor (New)","Old Harbor","AK","USA",57.21810306,-153.2697494
"595","6R9","Llano Municipal","Llano","TX","USA",30.78450278,-98.66025083
"596","6S0","Big Timber","Big Timber","MT","USA",45.80638889,-109.9811111
"597","6S2","Florence Muni","Florence","OR","USA",43.97901,-124.1095631
"598","6S3","Columbus","Columbus","MT","USA",45.6291075,-109.2507167
"599","6S5","Ravalli County","Hamilton","MT","USA",46.25149444,-114.1255403
"600","6S8","Laurel Municipal","Laurel","MT","USA",45.70308833,-108.7610886
"601","6V0","Edgemont Municipal","Edgemont","SD","USA",43.29525056,-103.8435325
"602","6V3","Tazewell County","Richlands","VA","USA",37.06374667,-81.79826944
"603","6V4","Wall Municipal","Wall","SD","USA",43.99498861,-102.2504367
"604","6V6","Hopkins ","Nucla","CO","USA",38.23879833,-108.5632597
"605","70J","Cairo-Grady County","Cairo","GA","USA",30.88797667,-84.15473528
"606","71J","Blackwell ","Ozark","AL","USA",31.43113889,-85.61922222
"607","72S","Rosalia Municipal","Rosalia","WA","USA",47.23683778,-117.4210244
"608","73C","Lancaster","Lancaster","WI","USA",42.78054722,-90.68096028
"609","73J","Beaufort County","Beaufort","SC","USA",32.4121375,-80.63455083
"610","74D","Marshall Cty","Moundsville","WV","USA",39.88083333,-80.73577778
"611","74S","Anacortes","Anacortes","WA","USA",48.4989925,-122.6623956
"612","74V","Roosevelt Municipal","Roosevelt","UT","USA",40.27829167,-110.0512619
"613","75J","Turner County","Ashburn","GA","USA",31.68545833,-83.63211194
"614","76G","Marine City","Marine City","MI","USA",42.72086583,-82.59574694
"615","77G","Marlette Township","Marlette","MI","USA",43.31183,-83.09091444
"616","77S","Hobby ","Creswell","OR","USA",43.93206889,-123.0067483
"617","78D","Caro Municipal","Caro","MI","USA",43.45908333,-83.44522222
"618","79D","Philippi-Barbour County Regional","Philippi","WV","USA",39.16620778,-80.06258056
"619","79J","Andalusia","Andalusia","AL","USA",31.30875278,-86.39376083
"620","79S","Fort Benton","Fort Benton","MT","USA",47.84583333,-110.6336111
"621","7A0","Greensboro Municipal","Greensboro","AL","USA",32.68147222,-87.66208333
"622","7A2","Demopolis Municipal","Demopolis","AL","USA",32.46381944,-87.95406389
"623","7A3","Lanett Municipal","Lanett","AL","USA",32.81204611,-85.22958111
"624","7A5","Roanoke Municipal","Roanoke","AL","USA",33.12928722,-85.366615
"625","7A8","Avery County/Morrison ","Spruce Pine","NC","USA",35.94457028,-81.99566944
"626","7B2","La Fleur","Northampton","MA","USA",42.32816806,-72.61151667
"627","7D2","Troy-Oakland","Troy","MI","USA",42.54294389,-83.17790861
"628","7F3","Caddo Mills Municipal","Caddo Mills","TX","USA",33.03622222,-96.24313889
"629","7F6","Clarksville-Red River County","Clarksville","TX","USA",33.59316472,-95.06355528
"630","7F7","Clifton Municipal","Clifton","TX","USA",31.81682333,-97.56696361
"631","7F9","Comanche County-City","Comanche","TX","USA",31.91681306,-98.600325
"632","7G0","Ledgedale Airpark","Brockport","NY","USA",43.18118194,-77.91362333
"633","7G8","Geauga County","Middlefield","OH","USA",41.44960972,-81.06292972
"634","7I7","Bellefontaine Municipal","Bellefontaine","OH","USA",40.41208333,-83.73686111
"635","7K0","Pike County-Hatcher ","Pikeville","KY","USA",37.56173889,-82.56660694
"636","7K2","Skagway SPB","Skagway","AK","USA",59.44689528,-135.3226633
"637","7K4","Ohio County ","Hartford","KY","USA",37.45832417,-86.84995194
"638","7K8","Martin ","South Sioux City","NE","USA",42.45416111,-96.47253111
"639","7KA","Tatitlek","Tatitlek","AK","USA",60.86890528,-146.6864653
"640","7M1","McGehee Municipal","McGehee","AR","USA",33.62022111,-91.36484056
"641","7M3","Bearce","Mount Ida","AR","USA",34.52926056,-93.52713472
"642","7M4","Osceola Municipal","Osceola","AR","USA",35.69114639,-90.01012028
"643","7M5","Ozark-Franklin County","Ozark","AR","USA",35.51069583,-93.8393075
"644","7M7","Piggott Municipal","Piggott","AR","USA",36.37820556,-90.16624167
"645","7N0","New Orleans Downtown Heliport","New Orleans","LA","USA",29.95194444,-90.08166667
"646","7N1","Corning-Painted Post","Corning","NY","USA",42.17590722,-77.11219278
"647","7N7","Spitfire Aerodrome","Pedrictown","NJ","USA",39.73556333,-75.39772111
"648","7S0","Ronan","Ronan","MT","USA",47.57076861,-114.0967783
"649","7S1","Twin Bridges","Twin Bridges","MT","USA",45.53325917,-112.3091656
"650","7S5","Independence State","Independence","OR","USA",44.86676444,-123.1982475
"651","7S6","White Sulphur Springs","White Sulphur Springs","MT","USA",46.50410722,-110.9132667
"652","7S7","Valier","Valier","MT","USA",48.29997583,-112.2508711
"653","7V1","Buena Vista Muni","Buena Vista","CO","USA",38.81416194,-106.1206939
"654","7V7","Red Cloud Municipal","Red Cloud","NE","USA",40.08473556,-98.54061694
"655","7W6","Hyde County","Englehard","NC","USA",35.5623925,-75.95518417
"656","80F","Antlers Municipal","Antlers","OK","USA",34.19260083,-95.64985889
"657","81B","Oxford County Regional","Norway","ME","USA",44.15742611,-70.48129583
"658","82C","Mauston-New Lisbon Union","New Lisbon","WI","USA",43.83872167,-90.13768389
"659","82V","Pine Bluffs Municipal","Pine Bluffs","WY","USA",41.15331528,-104.1302292
"660","83D","Mackinac County","St Ignace","MI","USA",45.89029056,-84.73755083
"661","84D","Cheyenne Eagle Butte","Eagle Butte","SD","USA",44.984375,-101.2510417
"662","84K","Meyers Chuck SPB","Meyers Chuck","AK","USA",55.73963611,-132.2550183
"663","84R","Smithville Municipal","Smithville","TX","USA",30.03048028,-97.16687194
"664","85V","Ganado","Ganado","AZ","USA",35.70140278,-109.5103814
"665","86F","Carnegie Municipal","Carnegie","OK","USA",35.12061417,-98.5806175
"666","87I","Yazoo County","Yazoo City","MS","USA",32.883215,-90.4636475
"667","87Y","Blackhawk Airfield","Madison","WI","USA",43.10491444,-89.18553833
"668","88C","Palmyra Municipal","Palmyra","WI","USA",42.88355556,-88.59743056
"669","88J","Allendale County","Allendale","SC","USA",32.99512944,-81.27024583
"670","88M","Eureka","Eureka","MT","USA",48.96885444,-115.0704464
"671","89D","Kelleys Island Land ","Kelleys Island","OH","USA",41.60282583,-82.684625
"672","8A0","Albertville Municipal ","Albertville","AL","USA",34.22910972,-86.25575806
"673","8A1","Guntersville Municipal","Guntersville","AL","USA",34.39944167,-86.27016111
"674","8A3","Livingston Municipal","Livingston","TN","USA",36.41217389,-85.31154861
"675","8B0","Rangeley Municipal","Rangeley","ME","USA",44.991895,-70.66462472
"676","8D1","New Holstein Municipal","New Holstein","WI","USA",43.94424111,-88.1134775
"677","8D3","Sisseton Municipal","Sisseton","SD","USA",45.67079278,-96.99619167
"678","8D4","Sparta","Sparta","MI","USA",43.12860833,-85.67689778
"679","8D7","Clark County","Clark","SD","USA",44.89570278,-97.71191361
"680","8D9","Howard Municipal","Howard","SD","USA",44.02914056,-97.53784778
"681","8F7","Decatur Municipal","Decatur","TX","USA",33.25463889,-97.58055556
"682","8G2","Lawrence","Corry","PA","USA",41.90755611,-79.64105083
"683","8G6","Harrison County","Cadiz","OH","USA",40.23820667,-81.01256917
"684","8G7","Zelienople","Zelienople","PA","USA",40.80161944,-80.16072889
"685","8K8","Cimarron Municipal","Cimarron","KS","USA",37.83057667,-100.3504222
"686","8K9","Murphys Pullout SPB","Ketchikan","AK","USA",55.38965028,-131.7380742
"687","8M1","Booneville-Baldwyn","Booneville","MS","USA",34.58981806,-88.64699861
"688","8S1","Polson","Polson","MT","USA",47.69543861,-114.1851178
"689","8S2","Cashmere-Dryden","Cashmere","WA","USA",47.51484611,-120.4848025
"690","8S5","East Cooper","Mt Pleasant","SC","USA",32.89783333,-79.78286111
"691","8U6","Terry","Terry","MT","USA",46.77917333,-105.3047083
"692","8U8","Townsend","Townsend","MT","USA",46.33111111,-111.4813889
"693","8V2","Stuart-Atkinson Municipal","Atkinson","NE","USA",42.56250167,-99.03787611
"694","8Y2","Buffalo Municipal","Buffalo","MN","USA",45.15904694,-93.84330361
"695","91C","Sauk - Prairie","Prairie Du Sac","WI","USA",43.2969325,-89.75595639
"696","91F","Arrowhead","Canadian","OK","USA",35.15426444,-95.62026389
"697","93B","Stonington","Stonington","ME","USA",44.17508056,-68.67863722
"698","93C","Richland","Richland Center","WI","USA",43.28333333,-90.29827778
"699","93F","Mignon Laird Municipal","Cheyenne","OK","USA",35.60393694,-99.70343889
"700","93Y","David City Municipal","David City","NE","USA",41.23334583,-97.11698111
"701","94K","Cassville Municipal","Cassville","MO","USA",36.69741667,-93.90052778
"702","95F","Cleveland Municipal","Cleveland","OK","USA",36.28340306,-96.46418833
"703","96D","Walhalla Municipal","Walhalla","ND","USA",48.94057222,-97.902775
"704","96Z","North Whale SPB","North Whale Pass","AK","USA",56.11631056,-133.1217153
"705","97M","Ekalaka","Ekalaka","MT","USA",45.87791444,-104.5375072
"706","98D","Onida Municipal","Onida","SD","USA",44.70414917,-100.1087353
"707","99N","Bamburg County","Bamburg","SC","USA",33.30515528,-81.10898917
"708","99Y","Greeley Municipal","Greeley","NE","USA",41.55834528,-98.54618528
"709","9A1","Covington Municipal","Covington","GA","USA",33.6324825,-83.84955806
"710","9A3","Chuathbaluk","Chuathbaluk","AK","USA",61.58317306,-159.2359667
"711","9A4","Lawrence County ","Courtland","AL","USA",34.65938889,-87.34883333
"712","9A5","Barwick-LaFayette ","LaFayette","GA","USA",34.68896917,-85.29023333
"713","9A6","Chester Municipal","Chester","SC","USA",34.78933333,-81.19577778
"714","9A8","Ugashik","Ugashik","AK","USA",57.5278675,-157.3993056
"715","9C8","Evart Municipal","Evart","MI","USA",43.8958525,-85.27920861
"716","9D0","Highmore Municipal","Highmore","SD","USA",44.54165056,-99.44622306
"717","9D1","Gregory Municipal","Gregory","SD","USA",43.22174722,-99.4033
"718","9D2","Harding County","Buffalo","SD","USA",45.58055222,-103.5296356
"719","9D7","Cando Municipal","Cando","ND","USA",48.4841675,-99.23680389
"720","9D9","Hastings Municipal","Hastings","MI","USA",42.66361778,-85.34625944
"721","9G0","Buffalo Airfield","Buffalo","NY","USA",42.86200306,-78.71658528
"722","9G1","West Penn","Tarentum","PA","USA",40.60423333,-79.82060611
"723","9G3","Akron","Akron","NY","USA",43.02108667,-78.48296778
"724","9G5","Royalton","Gasport","NY","USA",43.18200222,-78.55780528
"725","9G8","Ebensburg","Ebensburg","PA","USA",40.46121083,-78.77524389
"726","9I0","Havana Regional","Havana","IL","USA",40.221155,-90.02289361
"727","9I3","West Liberty","West Liberty","KY","USA",37.91453139,-83.25212111
"728","9K2","Kokhanok","Kokhanok","AK","USA",59.43264556,-154.8027058
"729","9K4","Skyhaven","Warrensburg","MO","USA",38.7842425,-93.80285417
"730","9K7","Ellsworth Municipal ","Ellsworth","KS","USA",38.74750889,-98.23061222
"731","9K8","Kingman Municipal","Kingman","KS","USA",37.66660278,-98.12264722
"732","9M4","Ackerman-Choctaw County","Ackerman","MS","USA",33.3034575,-89.22840028
"733","9M6","Kelly","Oak Grove","LA","USA",32.84921361,-91.40390611
"734","9M8","Sheridan-Grant County Regional","Sheridan","AR","USA",34.32842917,-92.35098583
"735","9S2","Scobey","Scobey","MT","USA",48.80772722,-105.43947
"736","9S4","Mineral County","Superior","MT","USA",47.16825944,-114.8537411
"737","9S5","Three Forks","Three Forks","MT","USA",45.87852778,-111.5691389
"738","9S7","Winifred","Winifred","MT","USA",47.55164778,-109.3776792
"739","9S9","Lexington","Lexington","OR","USA",45.45263139,-119.6886361
"740","9U0","Turner","Turner","MT","USA",48.85417361,-108.4090214
"741","9U3","Austin","Austin","NV","USA",39.46798056,-117.1953703
"742","9U4","Dixon","Dixon","WY","USA",41.03829806,-107.4972869
"743","9V5","Modisett ","Rushville","NE","USA",42.73748639,-102.4448947
"744","9V6","Martin Municipal","Martin","SD","USA",43.16564083,-101.7126953
"745","9V9","Chamberlain Municipal","Chamberlain","SD","USA",43.76612222,-99.32134
"746","9W7","Currituck County","Currituck","NC","USA",36.39893194,-76.01631111
"747","A04","Centre Municipal","Centre","AL","USA",34.15987361,-85.63512944
"748","A14","Portage Creek","Portage Creek","AK","USA",58.906485,-157.7141078
"749","A29","Sitka SPB","Sitka","AK","USA",57.05213778,-135.3462086
"750","A30","Scott Valley","Fort Jones","CA","USA",41.55819444,-122.8553103
"751","A32","Butte Valley","Dorris","CA","USA",41.88709222,-121.9755614
"752","A61","Tuntutuliak","Tuntutuliak","AK","USA",60.33534556,-162.6670094
"753","A63","Twin Hills","Twin Hills","AK","USA",59.07562167,-160.2730436
"754","A79","Chignik Lake","Chignik Lake","AK","USA",56.25504722,-158.7753614
"755","A85","Kwigillingok","Kwigillingok","AK","USA",59.87644778,-163.1675583
"756","AAF","Apalachicola Municipal","Apalachicola","FL","USA",29.72754583,-85.02744778
"757","AAO","Colonel James Jabara","Wichita","KS","USA",37.74755556,-97.22113889
"758","AAS","Taylor County","Cambellsville","KY","USA",37.35827778,-85.30941667
"759","AAT","Alturas Municipal","Alturas","CA","USA",41.483,-120.5653611
"760","ABE","Lehigh Valley International","Allentown","PA","USA",40.65236278,-75.44040167
"761","ABI","Abilene Regional","Abilene","TX","USA",32.41132,-99.68189722
"762","ABO","Antonio (Nery) Juarbe Pol","Arecibo","PR","USA",18.45111111,-66.67555556
"763","ABQ","Albuquerque International","Albuquerque","NM","USA",35.04022222,-106.6091944
"764","ABR","Aberdeen Regional","Aberdeen","SD","USA",45.44905556,-98.42183333
"765","ABY","Southwest Georgia Regional","Albany","GA","USA",31.535515,-84.19447333
"766","ACB","Antrim County","Bellaire","MI","USA",44.98857611,-85.198355
"767","ACJ","Souther ","Americus","GA","USA",32.11079917,-84.18884806
"768","ACK","Nantucket Memorial","Nantucket","MA","USA",41.25305194,-70.06018139
"769","ACQ","Waseca Municipal","Waseca","MN","USA",44.07346389,-93.55294361
"770","ACT","Waco Regional","Waco","TX","USA",31.61128833,-97.23051917
"771","ACV","Arcata","Arcata/Eureka","CA","USA",40.97811528,-124.1086189
"772","ACY","Atlantic City International","Atlantic City","NJ","USA",39.45758333,-74.57716667
"773","ACZ","Henderson ","Wallace","NC","USA",34.71789028,-78.00362444
"774","ADC","Wadena Municipal ","Wadena","MN","USA",46.45026972,-95.21095472
"775","ADG","Lenawee County","Adrian","MI","USA",41.86943667,-84.07480528
"776","ADH","Ada Municipal","Ada","OK","USA",34.80434056,-96.6712775
"777","ADK","Adak","Adak","AK","USA",51.87796389,-176.6460306
"778","ADM","Ardmore Municipal","Ardmore","OK","USA",34.30320667,-97.01952167
"779","ADQ","Kodiak ","Kodiak","AK","USA",57.74996778,-152.4938553
"780","ADS","Addison","Dallas/Addison","TX","USA",32.96855944,-96.83644778
"781","ADT","Atwood-Rawlins County City-County","Atwood","KS","USA",39.84013889,-101.0420278
"782","ADU","Audubon Municipal","Audubon","IA","USA",41.70137556,-94.92054167
"783","AEG","Double Eagle II","Albuquerque","NM","USA",35.14515278,-106.7951617
"784","AEL","Albert Lea Municipal","Albert Lea","MN","USA",43.68151278,-93.36723778
"785","AEX","Alexandria International","Alexandria","LA","USA",31.32737167,-92.54855611
"786","AFE","Kake","Kake","AK","USA",56.96048139,-133.9082694
"787","AFJ","Washington County","Washington","PA","USA",40.13648833,-80.29020083
"788","AFK","Nebraska City Municipal","Nebraska City","NE","USA",40.60688889,-95.86569444
"789","AFM","Ambler","Ambler","AK","USA",67.10610472,-157.8536203
"790","AFN","Jaffrey Municipal Silver Ranch","Jaffrey","NH","USA",42.80513417,-72.00302194
"791","AFO","Afton Municipal","Afton","WY","USA",42.71124583,-110.9421639
"792","AFW","Fort Worth Alliance","Fort Worth","TX","USA",32.98763889,-97.31880556
"793","AGC","Allegheny Cty","Pittsburgh","PA","USA",40.35440139,-79.93016889
"794","AGN","Angoon SPB","Angoon","AK","USA",57.50355528,-134.5850939
"795","AGO","Magnolia Municipal","Magnolia","AR","USA",33.22802111,-93.21696861
"796","AGS","Bush ","Augusta","GA","USA",33.369955,-81.96449611
"797","AGZ","Wagner Municipal","Wagner","SD","USA",43.06332694,-98.29618972
"798","AHH","Amery Municipal","Amery","WI","USA",45.28114833,-92.37539222
"799","AHN","Athens Municipal","Athens","GA","USA",33.94859528,-83.32634694
"800","AHP","Port Alexander SPB","Port Alexander","AK","USA",56.24684222,-134.6481539
"801","AHQ","Wahoo Municipal","Wahoo","NE","USA",41.24133333,-96.59402778
"802","AIA","Alliance Municipal","Alliance","NE","USA",42.05325,-102.8037222
"803","AID","Anderson Municipal","Anderson","IN","USA",40.10862139,-85.61299472
"804","AIG","Langlade County","Antigo","WI","USA",45.15419444,-89.11072222
"805","AIK","Aiken Municipal","Aiken","SC","USA",33.64955556,-81.68447222
"806","AIO","Atlantic Municipal","Atlantic","IA","USA",41.40726722,-95.04690639
"807","AIT","Aitkin Municipal","Aitkin","MN","USA",46.5484225,-93.6768
"808","AIV","George Downer ","Aliceville","AL","USA",33.10706889,-88.19725167
"809","AIY","Atlantic City Municipal","Atlantic City","NJ","USA",39.36002778,-74.45608333
"810","AIZ","Lee C Fine Memorial","Kaiser/Lake Ozark","MO","USA",38.096035,-92.5494875
"811","AJC","Chignik (Anchorage Bay)","Chignik","AK","USA",56.3114625,-158.3732369
"812","AJG","Mt Carmel Municipal","Mt Carmel","IL","USA",38.60654722,-87.72669417
"813","AJO","Corona Municipal","Corona","CA","USA",33.89765389,-117.60244
"814","AJR","Habersham County","Cornelia","GA","USA",34.50081944,-83.55487
"815","AK5","Perryville","Perryville","AK","USA",55.90806056,-159.1585781
"816","AKA","Atka","Atka","AK","USA",52.22034833,-174.2063503
"817","AKH","Gastonia Municipal","Gastonia","NC","USA",35.20265944,-81.1498675
"818","AKI","Akiak","Akiak","AK","USA",60.90481194,-161.2270189
"819","AKK","Akhiok","Akhiok","AK","USA",56.93869083,-154.1825556
"820","AKN","King Salmon","King Salmon","AK","USA",58.67680167,-156.6492175
"821","AKO","Akron-Washington Co","Akron","CO","USA",40.17563333,-103.2220278
"822","AKP","Anaktuvuk Pass","Anaktuvuk Pass","AK","USA",68.1343225,-151.74168
"823","AKR","Akron Fulton Intl.","Akron","OH","USA",41.0375,-81.46693944
"824","AKW","Klawock","Klawock","AK","USA",55.57923333,-133.0759972
"825","AL08","Vaiden ","Marion","AL","USA",32.51235611,-87.38555472
"826","ALB","Albany Cty","Albany","NY","USA",42.74811944,-73.80297861
"827","ALI","Alice International","Alice","TX","USA",27.74088889,-98.02694444
"828","ALM","Alamogordo-White Sands Regional","Alamogordo","NM","USA",32.83994444,-105.9905833
"829","ALN","St. Louis Regional","Alton/St. Louis","IL","USA",38.89029083,-90.04604306
"830","ALO","Waterloo Municipal","Waterloo","IA","USA",42.55708139,-92.40034361
"831","ALS","San Luis Valley Regional/Bergman ","Alamosa","CO","USA",37.43491667,-105.8665556
"832","ALW","Walla Walla Regional","Walla Walla","WA","USA",46.09456167,-118.2880367
"833","ALX","Thomas C Russell ","Alexander City","AL","USA",32.91475167,-85.96295611
"834","AMA","Amarillo International","Amarillo","TX","USA",35.2193725,-101.7059272
"835","AMG","Bacon County","Alma","GA","USA",31.53605556,-82.50655556
"836","AMN","Gratiot Community","Alma","MI","USA",43.3221425,-84.68794917
"837","AMT","Alexander Salamon","West Union","OH","USA",38.85148778,-83.56627778
"838","AMW","Ames Municipal","Ames","IA","USA",41.99206972,-93.62180139
"839","ANB","Anniston Metropolitan","Anniston","AL","USA",33.58816667,-85.85811111
"840","ANC","Ted Stevens Anchorage International","Anchorage","AK","USA",61.17432028,-149.9961856
"841","AND","Anderson County","Anderson","SC","USA",34.49494444,-82.70902778
"842","ANE","Anoka County","Minneapolis","MN","USA",45.145,-93.21138889
"843","ANI","Aniak","Aniak","AK","USA",61.58159694,-159.5430428
"844","ANQ","Steuben County-Tri State","Angola","IN","USA",41.63969833,-85.08349333
"845","ANV","Anvik","Anvik","AK","USA",62.64858333,-160.1898889
"846","ANW","Ainsworth Municipal","Ainsworth","NE","USA",42.57922222,-99.99297222
"847","ANY","Anthony Municipal","Anthony","KS","USA",37.15852194,-98.07964667
"848","AOC","Arco-Butte County","Arco","ID","USA",43.60343056,-113.3340972
"849","AOH","Allen County","Lima","OH","USA",40.70694444,-84.02666667
"850","AOO","Altoona-Blair Cty","Altoona","PA","USA",40.29637222,-78.32002306
"851","APA","Centennial","Denver","CO","USA",39.57012833,-104.8492942
"852","APC","Napa County","Napa","CA","USA",38.21319444,-122.2806944
"853","APF","Naples Municipal","Naples","FL","USA",26.15247222,-81.77544444
"854","APN","Alpena County Regional ","Alpena","MI","USA",45.0780675,-83.56028583
"855","APT","Marion County-Brown ","Jasper","TN","USA",35.06067778,-85.58531667
"856","APV","Apple Valley","Apple Valley","CA","USA",34.57528944,-117.1861792
"857","AQC","Klawock SPB","Klawock","AK","USA",55.5546575,-133.1016928
"858","AQH","Kwinhagak","Quinhagak","AK","USA",59.75700722,-161.8794789
"859","AQT","Nuiqsut","Nuiqsut","AK","USA",70.20995278,-151.0055611
"860","AQW","Harriman And West","North Adams","MA","USA",42.69591417,-73.17038306
"861","AQY","Girdwood","Girdwood","AK","USA",60.96609583,-149.1257892
"862","ARA","Acadiana Regional","New Iberia","LA","USA",30.03775833,-91.88389611
"863","ARB","Ann Arbor Municipal","Ann Arbor","MI","USA",42.22298361,-83.74560722
"864","ARC","Arctic Village","Arctic Village","AK","USA",68.11608083,-145.5761114
"865","ARG","Walnut Ridge Regional","Walnut Ridge","AR","USA",36.12534667,-90.92461944
"866","ARR","Aurora Municipal","Chicago/Aurora","IL","USA",41.77192944,-88.47565917
"867","ART","Watertown Intl","Watertown","NY","USA",43.99192222,-76.02173861
"868","ARV","Lakeland","Minocqua-Woodruff","WI","USA",45.92792556,-89.73094278
"869","ASD","Slidell","Slidell","LA","USA",30.345055,-89.82078833
"870","ASE","Aspen-Pitkin Co/Sardy ","Aspen","CO","USA",39.22316,-106.868845
"871","ASG","Springdale Municipal","Springdale","AR","USA",36.17641056,-94.11925833
"872","ASH","Boire ","Nashua","NH","USA",42.78176306,-71.51477944
"873","ASJ","Tri-County","Ahoskie","NC","USA",36.29752583,-77.17085556
"874","ASL","Marshall - Harrison County","Marshall","TX","USA",32.5205,-94.30777778
"875","ASN","Talladega Municipal","Talladega","AL","USA",33.56991111,-86.05085833
"876","AST","Astoria Regional","Astoria","OR","USA",46.15797222,-123.8786944
"877","ASW","Warsaw Municipal","Warsaw","IN","USA",41.2747,-85.84005556
"878","ASX","John F Kennedy Memorial","Ashland","WI","USA",46.54852806,-90.91896639
"879","ATA","Hall-Miller Municipal","Atlanta","TX","USA",33.101805,-94.19532694
"880","ATK","Atqasuk","Atqasuk","AK","USA",70.46727611,-157.4357361
"881","ATL","William B Hartsfield-Atlanta Intl","Atlanta","GA","USA",33.64044444,-84.42694444
"882","ATS","Artesia Municipal","Artesia","NM","USA",32.85252806,-104.4676864
"883","ATW","Outagamie County Regional","Appleton","WI","USA",44.25740806,-88.51947556
"884","ATY","Watertown Municipal","Watertown","SD","USA",44.91398056,-97.15471944
"885","AUG","Augusta State","Augusta","ME","USA",44.32064972,-69.79731806
"886","AUH","Aurora Municipal","Aurora","NE","USA",40.89413889,-97.99455556
"887","AUK","Alakanuk","Alakanuk","AK","USA",62.68004417,-164.6599253
"888","AUM","Austin Municipal","Austin","MN","USA",43.66499083,-92.933385
"889","AUN","Auburn Municipal","Auburn","CA","USA",38.95476944,-121.0820806
"890","AUO","Auburn-Opelik","Auburn","AL","USA",32.61635417,-85.43355944
"891","AUS","Austin-Bergstrom International","Austin","TX","USA",30.19453278,-97.66987194
"892","AUW","Wausau Municipal","Wausau","WI","USA",44.92847222,-89.62661111
"893","AVC","Mecklenburg-Brunswick Regional","South Hill","VA","USA",36.68827778,-78.05447222
"894","AVK","Alva Regional","Alva","OK","USA",36.77317,-98.66994611
"895","AVL","Asheville Regional","Asheville","NC","USA",35.43619444,-82.54180556
"896","AVO","Avon Park Municipal","Avon Park","FL","USA",27.591145,-81.52785333
"897","AVP","Wilkes-Barre/Scranton Intl","Wilkes-Barre/Scranton","PA","USA",41.33814944,-75.7242675
"898","AVQ","Marana Northwest Regional","Marana","AZ","USA",32.40939028,-111.2185086
"899","AVX","Catalina","Avalon","CA","USA",33.40494444,-118.4158611
"900","AWG","Washington Municipal","Washington","IA","USA",41.27610083,-91.67344389
"901","AWI","Wainwright","Wainwright","AK","USA",70.638,-159.99475
"902","AWM","West Memphis Municipal","West Memphis","AR","USA",35.13505861,-90.23444639
"903","AWO","Arlington Municipal","Arlington","WA","USA",48.16074833,-122.1590208
"904","AXA","Algona Municipal","Algona","IA","USA",43.07791056,-94.27199278
"905","AXN","Chandler ","Alexandria","MN","USA",45.86629833,-95.39466806
"906","AXS","Altus Municipal","Altus","OK","USA",34.69878194,-99.3381
"907","AXV","Neil Armstrong","Wapakoneta","OH","USA",40.49338889,-84.29894444
"908","AXX","Angel Fire","Angel Fire","NM","USA",36.42240972,-105.2892967
"909","AYS","Waycross-Ware County","Waycross","GA","USA",31.24905556,-82.39530556
"910","AZC","Colorado City Municipal","Colorado City","AZ","USA",36.95994444,-113.0138889
"911","AZE","Hazelhurst","Hazelhurst","GA","USA",31.88465639,-82.64738778
"912","AZO","Kalamazoo County","Kalamazoo","MI","USA",42.234875,-85.5520575
"913","B01","Granville","Granville","NY","USA",43.42507111,-73.26205306
"914","B08","Silver Springs","Silver Springs","NV","USA",39.40324917,-119.2518292
"915","B16","Whitford","Weedsport","NY","USA",43.08027611,-76.53837556
"916","B19","Biddeford Municipal","Biddeford","ME","USA",43.46411111,-70.47238889
"917","B21","Sugarloaf Regional","Carrabasset","ME","USA",45.08616639,-70.21617778
"918","BAF","Barnes Municipal","Westfield","MA","USA",42.15773111,-72.71562028
"919","BAK","Columbus Municipal","Columbus","IN","USA",39.26191861,-85.89634556
"920","BAM","Battle Mountain","Battle Mountain","NV","USA",40.59904583,-116.8743358
"921","BAX","Huron County Memorial","Bad Axe","MI","USA",43.78091667,-82.98566667
"922","BAZ","New Braunfels Municipal","New Braunfels","TX","USA",29.7045,-98.04222222
"923","BBB","Benson Municipal","Benson","MN","USA",45.3319325,-95.650565
"924","BBD","Curtis ","Brady","TX","USA",31.17816667,-99.32463889
"925","BBP","Marlboro County","Bennettsville","SC","USA",34.62170861,-79.73435944
"926","BBW","Broken Bow Municipal","Broken Bow","NE","USA",41.43645056,-99.64216861
"927","BCB","Virginia Tech","Blacksburg","VA","USA",37.20782361,-80.40832778
"928","BCE","Bryce Canyon","Bryce Canyon","UT","USA",37.70637111,-112.1454725
"929","BCK","Black River Falls Area","Black River Falls","WI","USA",44.25073861,-90.85528028
"930","BCT","Boca Raton","Boca Raton","FL","USA",26.37848667,-80.10769667
"931","BCV","Birchwood","Birchwood","AK","USA",61.41612444,-149.50888
"932","BDE","Baudette International","Baudette","MN","USA",48.72741667,-94.61030556
"933","BDG","Blanding Muni","Blanding","UT","USA",37.58303472,-109.4832889
"934","BDL","Bradley International","Windsor Locks","CT","USA",41.93887417,-72.68322833
"935","BDQ","Morrilton Municipal","Morrilton","AR","USA",35.13619528,-92.71349722
"936","BDR","Igor I Sikorsky Memorial","Bridgeport","CT","USA",41.16348417,-73.12617861
"937","BDX","Broadus","Broadus","MT","USA",45.433325,-105.4172133
"938","BED","Laurence G Hanscom ","Bedford","MA","USA",42.46995306,-71.28903
"939","BEH","Southwest Michigan Regional","Benton Harbor","MI","USA",42.12858333,-86.4285
"940","BET","Bethel","Bethel","AK","USA",60.77977639,-161.8379975
"941","BFD","Bradford Reg","Bradford","PA","USA",41.80306778,-78.64012083
"942","BFF","Scotts Bluff County","Scottsbluff","NE","USA",41.87402778,-103.5956389
"943","BFI","Boeing Field/King County Intl","Seattle","WA","USA",47.52998917,-122.3019561
"944","BFK","Buffalo Municipal","Buffalo","OK","USA",36.86330139,-99.61873056
"945","BFL","Meadows ","Bakersfield","CA","USA",35.43359806,-119.0567681
"946","BFM","Mobile Downtown","Mobile","AL","USA",30.62646944,-88.06799861
"947","BFR","Virgil I Grissom Municipal","Bedford","IN","USA",38.84003306,-86.44536361
"948","BFW","Silver Bay Municipal","Silver Bay","MN","USA",47.24902778,-91.41558333
"949","BGD","Hutchinson County","Borger","TX","USA",35.70004194,-101.3940536
"950","BGE","Decatur County Industrial Airpark","Bainbridge","GA","USA",30.97152778,-84.63744444
"951","BGF","Winchester Municipal","Winchester","TN","USA",35.17753417,-86.06616722
"952","BGM","Binghamton Regional","Binghamton","NY","USA",42.20848278,-75.97961361
"953","BGQ","Big Lake Strip Nr 2","Big Lake","AK","USA",61.53556806,-149.8138975
"954","BGR","Bangor International","Bangor","ME","USA",44.80744444,-68.82813889
"955","BHB","Hancock Co-Bar Harbor","Bar Harbor","ME","USA",44.44969444,-68.3615
"956","BHC","Baxley Municipal","Baxley","GA","USA",31.71383333,-82.39377778
"957","BHK","Baker Muni","Baker City","MT","USA",46.34763639,-104.2594475
"958","BHM","Birmingham International","Birmingham","AL","USA",33.56294306,-86.75354972
"959","BID","Block Island State","Block Island","RI","USA",41.16811889,-71.57784167
"960","BIE","Beatrice Municipal","Beatrice","NE","USA",40.30127778,-96.75411111
"961","BIG","Allen AAF","Delta Junction","AK","USA",63.99454722,-145.7216417
"962","BIH","Bishop","Bishop","CA","USA",37.37309556,-118.3636089
"963","BIL","Billings Logan Intl","Billings","MT","USA",45.8076625,-108.5428611
"964","BIS","Bismarck Municipal","Bismarck","ND","USA",46.77411111,-100.7467222
"965","BIV","Tulip City","Holland","MI","USA",42.74316667,-86.10502778
"966","BJC","Jeffco","Denver","CO","USA",39.90878667,-105.1172158
"967","BJI","Bemidji-Beltrami County","Bemidji","MN","USA",47.50942417,-94.93372333
"968","BJJ","Wayne County","Wooster","OH","USA",40.87480556,-81.88825
"969","BKD","Breckenridge Stephens County","Breckenridge","TX","USA",32.71904694,-98.89099972
"970","BKE","Baker City Municipal","Baker City","OR","USA",44.83733333,-117.8090833
"971","BKL","Burke Lakefront","Cleveland","OH","USA",41.5175,-81.68333333
"972","BKV","Hernando County","Brooksville","FL","USA",28.47359722,-82.45542139
"973","BKW","Raleigh Cty Memorial","Beckley","WV","USA",37.78732833,-81.12416417
"974","BKX","Brookings Municipal","Brookings","SD","USA",44.30483333,-96.81694444
"975","BLF","Mercer Cty","Bluefield","WV","USA",37.29579944,-81.20769056
"976","BLH","Blythe","Blythe","CA","USA",33.61916278,-114.7168764
"977","BLI","Bellingham Intl","Bellingham","WA","USA",48.79275,-122.5375278
"978","BLM","Allaire Arpt","Belmar/Farmingdale","NJ","USA",40.18691806,-74.12488694
"979","BLV","Scott AFB/MidAmerica ","Belleville/St. Louis","IL","USA",38.54517861,-89.83518444
"980","BMC","Brigham City","Brigham City","UT","USA",41.55239139,-112.0622625
"981","BMG","Monroe County","Bloomington","IN","USA",39.14602139,-86.61668278
"982","BMI","Central Illinois Regional","Bloomington","IL","USA",40.47798556,-88.91595278
"983","BML","Berlin Municipal","Berlin","NH","USA",44.57537278,-71.17593167
"984","BMQ","Burnet Muni-Kate Craddock ","Burnet","TX","USA",30.73894444,-98.23858333
"985","BMT","Beaumont Municipal","Beaumont","TX","USA",30.07044111,-94.21553806
"986","BNA","Nashville International","Nashville","TN","USA",36.12447667,-86.67818222
"987","BNF","Baranof Warm Springs SPB","Baranof Warm Springs","AK","USA",57.08882583,-134.8331414
"988","BNG","Banning Municipal","Banning","CA","USA",33.92307111,-116.8505756
"989","BNL","Barnwell County","Barnwell","SC","USA",33.25777778,-81.38833333
"990","BNO","Burns Muni","Burns","OR","USA",43.59212778,-118.9549789
"991","BNW","Boone Municipal","Boone","IA","USA",42.04956944,-93.84757222
"992","BOI","Boise Air Terminal","Boise","ID","USA",43.56444444,-116.2227778
"993","BOK","Brookings","Brookings","OR","USA",42.07455556,-124.2900939
"994","BOS","Gen Edw L Logan Intl","Boston","MA","USA",42.3643475,-71.00517917
"995","BOW","Bartow Municipal","Bartow","FL","USA",27.9433575,-81.78344167
"996","BPI","Big Piney-Marbleton","Big Piney","WY","USA",42.58506972,-110.1111531
"997","BPK","Baxter County Regional","Mountain Home","AR","USA",36.36894194,-92.47052806
"998","BPT","Southeast Texas Regional","Beaumont/Port Arthur","TX","USA",29.95083333,-94.02069444
"999","BQK","Glynco Jetport","Brunswick","GA","USA",31.25902778,-81.46630556
"1000","BQN","Rafael Hernandez","Aguadilla","PR","USA",18.49486111,-67.12944444
"1001","BRD","Brainerd-Crow Wing County Regional","Brainerd","MN","USA",46.39785806,-94.1372275
"1002","BRL","Burlington Municipal","Burlington","IA","USA",40.783225,-91.12550556
"1003","BRO","Brownsville/S.Padre Island International","Brownsville","TX","USA",25.90683333,-97.42586111
"1004","BRW","Wiley Post Will Rogers Memorial","Barrow","AK","USA",71.2854475,-156.7660019
"1005","BRY","Samuels ","Bardstown","KY","USA",37.81432167,-85.49963806
"1006","BST","Belfast Municipal","Belfast","ME","USA",44.40966667,-69.01225
"1007","BTI","Barter Island ","Kaktovik","AK","USA",70.13390278,-143.5770444
"1008","BTL","W K Kellogg Regional","Battle Creek","MI","USA",42.30727806,-85.25147972
"1009","BTM","Bert Mooney","Butte","MT","USA",45.95479528,-112.49746
"1010","BTN","Britton Municipal","Britton","SD","USA",45.81522222,-97.74313889
"1011","BTP","Butler Cty","Butler","PA","USA",40.77692611,-79.94972417
"1012","BTR","Baton Rouge Metropolitan, Ryan ","Baton Rouge","LA","USA",30.53316083,-91.14963444
"1013","BTT","Bettles","Bettles","AK","USA",66.91528667,-151.5280556
"1014","BTV","Burlington International","Burlington","VT","USA",44.47300361,-73.1503125
"1015","BTY","Beatty","Beatty","NV","USA",36.86105722,-116.7870036
"1016","BUB","Cram ","Burwell","NE","USA",41.77669444,-99.14975
"1017","BUF","Buffalo Niagara Intl","Buffalo","NY","USA",42.94052472,-78.73216667
"1018","BUM","Butler Memorial","Butler","MO","USA",38.28977028,-94.34012694
"1019","BUR","Burbank-Glendale-Pasadena","Burbank","CA","USA",34.20061917,-118.3584969
"1020","BUY","Burlington Municipal","Burlington","NC","USA",36.04854333,-79.47488694
"1021","BVI","Beaver County","Beaver Falls","PA","USA",40.77248083,-80.39142556
"1022","BVK","Buckland","Buckland","AK","USA",65.98228611,-161.1519778
"1023","BVN","Albion Municipal","Albion","NE","USA",41.72857778,-98.05575972
"1024","BVO","Bartlesville Municipal","Bartlesville","OK","USA",36.76247611,-96.01115167
"1025","BVS","Skagit Regional/Bay View","Burlington/Mount Vernon","WA","USA",48.47088889,-122.4208611
"1026","BVX","Batesville Regional","Batesville","AR","USA",35.726105,-91.64736083
"1027","BVY","Beverly Municipal","Beverly","MA","USA",42.58417111,-70.91651833
"1028","BWC","Brawley Municipal","Brawley","CA","USA",32.9931,-115.5169325
"1029","BWD","Brownwood Municipal","Brownwood","TX","USA",31.79362222,-98.95649528
"1030","BWG","Bowling Green-Warren County ","Bowling Green","KY","USA",36.96451667,-86.41967917
"1031","BWI","Baltimore-Washington International","Baltimore","MD","USA",39.17540167,-76.66819833
"1032","BWP","Harry Stern","Wahpeton","ND","USA",46.24640083,-96.6056825
"1033","BXA","George R Carr Memorial","Bogalusa","LA","USA",30.81368639,-89.86496444
"1034","BXG","Burke County","Waynesboro","GA","USA",33.04093056,-82.00397917
"1035","BXK","Buckeye Municipal","Buckeye","AZ","USA",33.42088556,-112.6863
"1036","BYA","Boundary","Boundary","AK","USA",64.07830278,-141.113375
"1037","BYG","Johnson County","Buffalo","WY","USA",44.38108528,-106.7217897
"1038","BYI","Burley Municipal","Burley","ID","USA",42.54260361,-113.7715442
"1039","BZN","Gallatin ","Bozeman","MT","USA",45.77690139,-111.1530072
"1040","C00","Mercer County","Aledo","IL","USA",41.248645,-90.73708361
"1041","C05","Chenega Bay","Chenega","AK","USA",60.07730556,-147.9918889
"1042","C09","Morris Municipal","Morris","IL","USA",41.42541667,-88.41869444
"1043","C15","Pekin Municipal","Pekin","IL","USA",40.48820611,-89.67591083
"1044","C17","Marion","Marion","IA","USA",42.03111083,-91.52934222
"1045","C18","Frankfort","Chicago/Frankfort","IL","USA",41.4775,-87.84047222
"1046","C25","Waverly Municipal","Waverly","IA","USA",42.7419525,-92.50793528
"1047","C29","Morey","Middleton","WI","USA",43.11424444,-89.53073222
"1048","C34","Gibson City Municipal","Gibson City","IL","USA",40.48578389,-88.2672725
"1049","C35","Reedsburg Municipal","Reedsburg","WI","USA",43.52589944,-89.98322194
"1050","C47","Portage Municipal","Portage","WI","USA",43.5600925,-89.48309278
"1051","C52","Burlington Municipal","Burlington","WI","USA",42.69056389,-88.30464
"1052","C56","Sanger","Chicago/Monee","IL","USA",41.37756167,-87.68137528
"1053","C62","Kendallville Municipal","Kendallville","IN","USA",41.47271639,-85.26080833
"1054","C65","Plymouth Municipal","Plymouth","IN","USA",41.36513333,-86.30050417
"1055","C66","Monmouth Municipal","Monmouth","IL","USA",40.92970444,-90.63110722
"1056","C71","Crosby Municipal","Crosby","MS","USA",31.29600472,-91.05288167
"1057","C73","Dixon Muni-Charles R Walgreen ","Dixon","IL","USA",41.83369889,-89.44621333
"1058","C75","Marshall County","Lacon","IL","USA",41.01928583,-89.38642222
"1059","C77","Poplar Grove ","Poplar Grove","IL","USA",42.32268639,-88.83651833
"1060","C80","New Coalinga Municipal","Coalinga","CA","USA",36.16313889,-120.2938139
"1061","C81","Campbell","Chicago/Round Lake Park","IL","USA",42.32461111,-88.07408806
"1062","C83","Byron","Byron","CA","USA",37.8284525,-121.6258219
"1063","C91","Dowagiac Municipal ","Dowagiac","MI","USA",41.99293417,-86.1280125
"1064","CAD","Wexford County","Cadillac","MI","USA",44.27531333,-85.41892694
"1065","CAE","Columbia Metropolitan","Columbia","SC","USA",33.93884,-81.11953944
"1066","CAG","Craig-Moffat","Craig","CO","USA",40.49522139,-107.5216467
"1067","CAK","Akron-Canton Regional","Akron","OH","USA",40.91631194,-81.44246556
"1068","CAO","Clayton Municipal Airpark","Clayton","NM","USA",36.44585972,-103.1546583
"1069","CAR","Caribou Municipal","Caribou","ME","USA",46.8715,-68.01791667
"1070","CAV","Clarion Municipal","Clarion","IA","USA",42.74194389,-93.75890944
"1071","CBE","Cumberland Regional","Cumberland","MD","USA",39.61541667,-78.76086361
"1072","CBF","Council Bluffs Municipal","Council Bluffs","IA","USA",41.25947222,-95.75997222
"1073","CBG","Cambridge Municipal","Cambridge","MN","USA",45.55854639,-93.26464361
"1074","CBK","Shaltz ","Colby","KS","USA",39.42753083,-101.0465719
"1075","CCB","Cable","Upland","CA","USA",34.11154056,-117.6875897
"1076","CCO","Newnan-Coweta County","Newnan","GA","USA",33.31208333,-84.77027778
"1077","CCR","Buchanan ","Concord","CA","USA",37.98965639,-122.0568972
"1078","CCY","Charles City Municipal","Charles City","IA","USA",43.07260861,-92.61077833
"1079","CDB","Cold Bay","Cold Bay","AK","USA",55.20559972,-162.7242628
"1080","CDC","Cedar City Muni","Cedar City","UT","USA",37.70097028,-113.098575
"1081","CDH","Harrell ","Camden","AR","USA",33.62279917,-92.76339528
"1082","CDI","Cambridge Municipal","Cambridge","OH","USA",39.97504417,-81.57759528
"1083","CDK","George T Lewis","Cedar Key","FL","USA",29.137745,-83.04984361
"1084","CDN","Woodward ","Camden","SC","USA",34.28358333,-80.56486111
"1085","CDR","Chadron Municipal","Chadron","NE","USA",42.83755556,-103.0954167
"1086","CDV","Merle K (Mudhole) Smith","Cordova","AK","USA",60.49183389,-145.4776503
"1087","CDW","Essex Cty Arpt","Caldwell","NJ","USA",40.87522278,-74.28135667
"1088","CEC","Jack McNamara ","Crescent City","CA","USA",41.78015722,-124.2365333
"1089","CEF","Westover AFB","Chicopee","MA","USA",42.19826389,-72.53425833
"1090","CEK","Crete Municipal","Crete","NE","USA",40.61791667,-96.92488889
"1091","CEM","Central","Central","AK","USA",65.57380667,-144.7832908
"1092","CEU","Oconee County Regional","Clemson","SC","USA",34.67205556,-82.88644444
"1093","CEV","Mettel ","Connersville","IN","USA",39.69803139,-85.13124528
"1094","CEW","Bob Sikes","Crestview","FL","USA",30.77883333,-86.52211111
"1095","CEY","Kyle-Oakley ","Murray","KY","USA",36.66458333,-88.37277722
"1096","CEZ","Cortez Muni","Cortez","CO","USA",37.30299778,-108.6280658
"1097","CFD","Coulter ","Bryan","TX","USA",30.71569444,-96.33136111
"1098","CFJ","Crawfordsville Municipal","Crawfordsville","IN","USA",39.97562861,-86.91986361
"1099","CFK","Chefornak","Chefornak","AK","USA",60.14922556,-164.2856325
"1100","CFT","Greenlee County","Clifton-Morenci","AZ","USA",32.95284306,-109.2103453
"1101","CFV","Coffeyville Municipal","Coffeyville","KS","USA",37.0940475,-95.57189417
"1102","CGA","Craig SPB","Craig","AK","USA",55.47883139,-133.1478011
"1103","CGC","Crystal River","Crystal River","FL","USA",28.86727778,-82.57130556
"1104","CGE","Cambridge-Dorchester","Cambridge","MD","USA",38.53930556,-76.03036111
"1105","CGF","Cuyahoga County","Cleveland","OH","USA",41.56512389,-81.48635389
"1106","CGI","Cape Girardeau Municipal","Cape Girardeau","MO","USA",37.22531694,-89.57075167
"1107","CGS","College Park","College Park","MD","USA",38.98058333,-76.92230556
"1108","CGX","Chicago Meigs","Chicago","IL","USA",41.85884389,-87.60791167
"1109","CGZ","Casa Grande Municipal","Casa Grande","AZ","USA",32.95488889,-111.7668333
"1110","CHA","Lovell ","Chattanooga","TN","USA",35.03526833,-85.20378778
"1111","CHD","Chandler Municipal","Chandler","AZ","USA",33.26908333,-111.8111389
"1112","CHK","Chickasha Municipal","Chickasha","OK","USA",35.09614694,-97.96618361
"1113","CHO","Charlottesville-Albermarle","Charlottesville","VA","USA",38.13863889,-78.45286111
"1114","CHP","Circle Hot Springs","Circle Hot Springs","AK","USA",65.48547222,-144.6107836
"1115","CHS","Charleston AFB/International","Charleston","SC","USA",32.89864639,-80.04050583
"1116","CHT","Chillicothe Municipal","Chillicothe","MO","USA",39.78215278,-93.49568056
"1117","CHU","Houston County","Caledonia","MN","USA",43.59635861,-91.50394639
"1118","CIC","Chico Municipal","Chico","CA","USA",39.79538278,-121.8584231
"1119","CID","Eastern Iowa ","Cedar Rapids","IA","USA",41.88458833,-91.71087222
"1120","CII","Choteau","Choteau","MT","USA",47.82528056,-112.1662136
"1121","CIK","Chalkyitsik","Chalkyitsik","AK","USA",66.64969083,-143.7359492
"1122","CIN","Arthur N Neu","Carroll","IA","USA",42.04619444,-94.789
"1123","CIR","Cairo","Cairo","IL","USA",37.06447222,-89.21961111
"1124","CIU","Chippewa County International","Sault Ste. Marie","MI","USA",46.25075194,-84.47238528
"1125","CJR","Culpeper Regional","Culpeper","VA","USA",38.5267075,-77.85885528
"1126","CJX","Crooked Creek","Crooked Creek","AK","USA",61.86902194,-158.1371178
"1127","CKB","Benedum","Clarksburg","WV","USA",39.29663889,-80.22808333
"1128","CKC","Grand Marais/Cook County","Grand Marais","MN","USA",47.83830556,-90.38313889
"1129","CKF","Crisp County - Cordele","Cordele","GA","USA",31.98883333,-83.77391667
"1130","CKI","Williamsburg County","Kingstree","SC","USA",33.71722222,-79.85697222
"1131","CKM","Fletcher ","Clarksdale","MS","USA",34.29971,-90.51231611
"1132","CKN","Crookston Muni Kirkwood ","Crookston","MN","USA",47.84169417,-96.62162028
"1133","CKP","Cherokee Municipal","Cherokee","IA","USA",42.73147222,-95.55613889
"1134","CKU","Cordova Muni","Cordova","AK","USA",60.54390333,-145.7267042
"1135","CKV","Outlaw ","Clarksville","TN","USA",36.62188083,-87.41495361
"1136","CKX","Chicken","Chicken","AK","USA",64.07133833,-141.9522792
"1137","CLD","MC Clellan-Palomar Airport",NA,NA,"USA",33.127231,-117.278727
"1138","CLE","Cleveland-Hopkins Intl","Cleveland","OH","USA",41.41089417,-81.84939667
"1139","CLI","Clintonville Municipal","Clintonville","WI","USA",44.61381306,-88.73126667
"1140","CLK","Clinton Municipal","Clinton","OK","USA",35.53832778,-98.932695
"1141","CLL","Easterwood ","College Station","TX","USA",30.58858944,-96.36382417
"1142","CLM","William R Fairchild Intl","Port Angeles","WA","USA",48.12019444,-123.4996944
"1143","CLP","Clarks Point","Clarks Point","AK","USA",58.84230472,-158.5452331
"1144","CLS","Chehalis-Centralia","Chehalis","WA","USA",46.67649194,-122.9792967
"1145","CLT","Charlotte/Douglas International","Charlotte","NC","USA",35.21401111,-80.94312583
"1146","CLW","Clearwater Air Park","Clearwater","FL","USA",27.97668639,-82.75874028
"1147","CMA","Camarillo","Camarillo","CA","USA",34.21375472,-119.0943264
"1148","CMH","Port Columbus Intl","Columbus","OH","USA",39.99798528,-82.89188278
"1149","CMI","University of Illinois-Willard","Champaign/Urbana","IL","USA",40.03925,-88.27805556
"1150","CMX","Houghton County Memorial","Hancock","MI","USA",47.16841722,-88.48906083
"1151","CMY","Sparta/Fort McCoy","Sparta","WI","USA",43.95834806,-90.7378975
"1152","CNC","Chariton Municipal","Chariton","IA","USA",41.01962389,-93.35968028
"1153","CNH","Claremont Municipal","Claremont","NH","USA",43.37043194,-72.36867667
"1154","CNK","Blosser Municipal","Concordia","KS","USA",39.54925139,-97.65231667
"1155","CNM","Cavern City Air Terminal","Carlsbad","NM","USA",32.33747222,-104.2632778
"1156","CNO","Chino","Chino","CA","USA",33.97469444,-117.6366111
"1157","CNP","Billy G Ray ","Chappell","NE","USA",41.07747222,-102.4640556
"1158","CNU","Chanute Martin Johnson","Chanute","KS","USA",37.66879722,-95.48506444
"1159","CNW","TSTC-Waco","Waco","TX","USA",31.63783139,-97.07413889
"1160","CNY","Canyonlands ","Moab","UT","USA",38.75495611,-109.7548439
"1161","COD","Yellowstone Regional","Cody","WY","USA",44.52019417,-109.0237961
"1162","COE","Coeur D'Alene Air Terminal","Coeur D'Alene","ID","USA",47.77429167,-116.8196231
"1163","COI","Merritt Island","Merritt Island","FL","USA",28.34158944,-80.6854975
"1164","COM","Coleman Municipal","Coleman","TX","USA",31.84113889,-99.40361111
"1165","CON","Concord Municipal","Concord","NH","USA",43.20273278,-71.50228556
"1166","COQ","Cloquet-Carlton County","Cloquet","MN","USA",46.70016833,-92.50552861
"1167","COS","City of Colorado Springs Muni","Colorado Springs","CO","USA",38.80580556,-104.70025
"1168","COT","Cotulla-Lasalle County","Cotulla","TX","USA",28.45825583,-99.22016389
"1169","COU","Columbia Regional","Columbia","MO","USA",38.81809306,-92.21962917
"1170","CPC","Columbus County Municipal","Whiteville","NC","USA",34.27287278,-78.71499278
"1171","CPK","Chesapeake Municipal","Norfolk","VA","USA",36.66561833,-76.32066389
"1172","CPM","Compton/Woodley","Compton","CA","USA",33.89001611,-118.2436831
"1173","CPR","Natrona County Intl","Casper","WY","USA",42.90835556,-106.4644661
"1174","CPS","St. Louis Downtown","Cahokia/St. Louis","IL","USA",38.57072444,-90.15622111
"1175","CPX","Benjamin Rivera Noriega","Isla De Culebra","PR","USA",18.31328917,-65.30432444
"1176","CQA","Lakefield","Celina","OH","USA",40.48408333,-84.56011111
"1177","CQB","Chandler Municipal","Chandler","OK","USA",35.72381556,-96.82027306
"1178","CQX","Chatham Municipal","Chatham","MA","USA",41.68840028,-69.98952417
"1179","CRC","Circle City","Circle","AK","USA",65.83049389,-144.0758128
"1180","CRE","Grand Strand","North Myrtle Beach","SC","USA",33.81175,-78.72394444
"1181","CRG","Craig Municipal","Jacksonville","FL","USA",30.33633333,-81.51444444
"1182","CRO","Corcoran","Corcoran","CA","USA",36.10245111,-119.5948469
"1183","CRP","Corpus Christi International","Corpus Christi","TX","USA",27.77036083,-97.50121528
"1184","CRQ","McClellan-Palomar","Carlsbad","CA","USA",33.12822222,-117.2802222
"1185","CRS","C Davis Campbell -Corsicana Muni","Corsicana","TX","USA",32.02748861,-96.39803611
"1186","CRT","Crossett Municipal","Crossett","AR","USA",33.17833278,-91.88018806
"1187","CRW","Yeager","Charleston","WV","USA",38.37315083,-81.59318972
"1188","CRX","Roscoe Turner ","Corinth","MS","USA",34.91496778,-88.60348361
"1189","CSB","Cambridge Municipal","Cambridge","NE","USA",40.30658333,-100.1620833
"1190","CSG","Columbus Metropolitan","Columbus","GA","USA",32.51633333,-84.93886111
"1191","CSM","Clinton-Sherman","Clinton","OK","USA",35.33983917,-99.20049944
"1192","CSQ","Creston Municipal","Creston","IA","USA",41.02146139,-94.36331917
"1193","CSV","Crossville Memorial","Crossville","TN","USA",35.95129194,-85.08497806
"1194","CTB","Cut Bank Muni","Cut Bank","MT","USA",48.60835444,-112.3761464
"1195","CTJ","West Georgia Regional","Carrollton","GA","USA",33.63102778,-85.15202778
"1196","CTK","Ingersoll","Canton","IL","USA",40.56909444,-90.07484
"1197","CTY","Cross City ","Cross City","FL","USA",29.63552778,-83.10475
"1198","CTZ","Sampson County","Clinton","NC","USA",34.97561194,-78.36461528
"1199","CUB","Columbia Owens Downtown","Columbia","SC","USA",33.97047222,-80.99525
"1200","CUH","Cushing Municipal","Cushing","OK","USA",35.949925,-96.77305278
"1201","CUL","Carmi Municipal","Carmi","IL","USA",38.08947917,-88.12306111
"1202","CUT","Custer County","Custer","SD","USA",43.73331611,-103.6176947
"1203","CVG","Cincinnati Northern Kentucky Intl","Covington","KY","USA",39.04614278,-84.6621725
"1204","CVK","Sharp County Regional","Ash Flat","AR","USA",36.26487139,-91.56264111
"1205","CVN","Clovis Municipal","Clovis","NM","USA",34.42513889,-103.0792778
"1206","CVO","Corvallis Muni","Corvallis","OR","USA",44.49719361,-123.2898297
"1207","CVX","Charlevoix Municipal","Charlevoix","MI","USA",45.30477778,-85.27477778
"1208","CWA","Central Wisconsin","Mosinee","WI","USA",44.77761917,-89.66677944
"1209","CWF","Chennault International ","Lake Charles","LA","USA",30.21059167,-93.14318944
"1210","CWI","Clinton Municipal","Clinton","IA","USA",41.8311125,-90.32913056
"1211","CWV","Claxton-Evans County","Claxton","GA","USA",32.19505556,-81.86955556
"1212","CXC","Chitina","Chitina","AK","USA",61.58285917,-144.4270969
"1213","CXE","Chase City Municipal","Chase City","VA","USA",36.78833556,-78.50155361
"1214","CXF","Coldfoot","Coldfoot","AK","USA",67.25163417,-150.2065672
"1215","CXL","Calexico International","Calexico","CA","USA",32.66950333,-115.5133281
"1216","CXO","Montgomery County","Conroe","TX","USA",30.35183333,-95.4144675
"1217","CXP","Carson","Carson City","NV","USA",39.19222972,-119.7343611
"1218","CXU","Camilla-Mitchell County","Camilla","GA","USA",31.21291667,-84.23680556
"1219","CXY","Capital City","Harrisburg","PA","USA",40.21713889,-76.85147222
"1220","CYO","Pickaway County Memorial","Circleville","OH","USA",39.51600611,-82.98215361
"1221","CYS","Cheyenne","Cheyenne","WY","USA",41.1557225,-104.8118381
"1222","CYW","Clay Center Municipal","Clay Center","KS","USA",39.38713889,-97.15721417
"1223","CZD","Cozad Municipal","Cozad","NE","USA",40.86911111,-100.0042222
"1224","CZG","Tri-Cities ","Endicott","NY","USA",42.07853583,-76.09633306
"1225","CZL","Tom B David ","Calhoun","GA","USA",34.45678278,-84.93949944
"1226","CZN","Chisana","Chisana","AK","USA",62.07118972,-142.0483742
"1227","CZT","Dimmit County","Carrizo Springs","TX","USA",28.52225111,-99.82363444
"1228","D04","Bowman Municipal","Bowman","ND","USA",46.18699111,-103.4280806
"1229","D05","Garrison Municipal","Garrison","ND","USA",47.65594444,-101.4372222
"1230","D07","Faith Municipal","Faith","SD","USA",45.03609417,-102.0198803
"1231","D09","Bottineau Municipal","Bottineau","ND","USA",48.83039167,-100.4171361
"1232","D19","Quentin Aanenson ","Luverne","MN","USA",43.62080278,-96.21864028
"1233","D22","Angola ","Angola","NY","USA",42.66010111,-78.99115556
"1234","D25","Manitowish Waters","Manitowish Waters","WI","USA",46.12197222,-89.88233333
"1235","D38","Canandaiga","Canandaiga","NY","USA",42.90718611,-77.32162639
"1236","D42","Springfield Municipal","Springfield","MN","USA",44.23107,-94.99893444
"1237","D50","Crosby Municipal","Crosby","ND","USA",48.92851556,-103.2972514
"1238","D55","Robertson ","Langdon","ND","USA",48.75301778,-98.39333694
"1239","D57","Glen Ullin Municipal","Glen Ullin","ND","USA",46.81278306,-101.8601556
"1240","D60","Tioga Municipal","Tioga","ND","USA",48.3805325,-102.8979853
"1241","D73","Monroe-Walton County","Monroe","GA","USA",33.78149889,-83.69355389
"1242","D77","Lancaster","Lancaster","NY","USA",42.92228111,-78.61224889
"1243","D87","Harbor Springs","Harbor Springs","MI","USA",45.42556528,-84.91338389
"1244","D95","Dupont-Lapeer","Lapeer","MI","USA",43.06703333,-83.27244444
"1245","D98","Romeo","Romeo","MI","USA",42.79699083,-82.97526583
"1246","DAB","Daytona Beach International","Daytona Beach","FL","USA",29.17991667,-81.05805556
"1247","DAG","Barstow-Daggett","Daggett","CA","USA",34.85371333,-116.7866875
"1248","DAL","Dallas Love ","Dallas","TX","USA",32.84711389,-96.85177222
"1249","DAN","Danville Regional","Danville","VA","USA",36.57286111,-79.33611111
"1250","DAW","Skyhaven","Rochester","NH","USA",43.28406194,-70.92925472
"1251","DAY","James M Cox Dayton Intl","Dayton","OH","USA",39.90237583,-84.219375
"1252","DBN","W. H. \Bud\ Barron ","Dublin","GA","USA",32.56445806,-82.98525556
"1253","DBQ","Dubuque Municipal","Dubuque","IA","USA",42.40295944,-90.70916722
"1254","DCA","Ronald Reagan Washington National","Arlington","VA","USA",38.85208333,-77.03772222
"1255","DCK","Dahl Creek","Dahl Creek","AK","USA",66.94333806,-156.9046739
"1256","DCU","Pryor  Regional","Decatur","AL","USA",34.65264667,-86.94536778
"1257","DCY","Daviess County","Washington","IN","USA",38.70042333,-87.12973222
"1258","DDC","Dodge City Regional","Dodge City","KS","USA",37.76312194,-99.96542389
"1259","DDH","William H. Morse State","Bennington","VT","USA",42.8913325,-73.2464075
"1260","DEC","Decatur","Decatur","IL","USA",39.8345625,-88.86568917
"1261","DED","Deland Municipal-Taylor ","Deland","FL","USA",29.06698056,-81.28394167
"1262","DEE","Deering","Deering","AK","USA",66.06820583,-162.7666028
"1263","DEH","Decorah Municipal","Decorah","IA","USA",43.27550139,-91.73937389
"1264","DEN","Denver Intl","Denver","CO","USA",39.85840806,-104.6670019
"1265","DEQ","J Lynn Helms Sevier County","De Queen","AR","USA",34.04699556,-94.39936556
